ISO time,Unix time,Id,Longitude,Latitude,Altitude,Roll,Pitch,Yaw,U,V,Heading,TAS,ASL,AOA,AOS,G,Relative Time
1973-12-21T09:02:11Z,125312531,10B,43.0858292,44.2216829,322.14,0.4,5.2,34.3,706189.56,-51899.54,27.2,0.146484378274181,322.139984130859,6.13200001716615,,,0.159999996423721
1973-12-21T09:02:11.25Z,125312531.25,10B,43.0858293,44.2216831,322.14,0.2,4.3,34.3,706189.56,-51899.5,27.1,0.142911586612419,322.139984130859,4.93200001716616,,,0.409999996423721
1973-12-21T09:02:11.5Z,125312531.5,10B,43.0858294,44.2216832,322.15,-0,4.2,34.3,706189.56,-51899.49,27.1,0.101752159959809,322.149993896484,5.09090903179705,,,0.659999996423721
1973-12-21T09:02:11.75Z,125312531.75,10B,43.0858292,44.2216831,322.15,-0.1,4.6,34.3,706189.56,-51899.51,27.1,0.05687735000392,322.149993896484,6.16500000149011,,,0.909999996423721
1973-12-21T09:02:12Z,125312532,10B,43.0858292,44.2216831,322.14,0,4.7,34.3,706189.56,-51899.52,27.1,0.01953125,322.139984130859,6,,0.997723755138431,1.15999999642372
1973-12-21T09:02:12.25Z,125312532.25,10B,43.0858293,44.2216831,322.14,0.1,4.6,34.3,706189.56,-51899.51,27.1,0.01171875,322.139984130859,5.77272727149577,,0.997695846633859,1.40999999642372
1973-12-21T09:02:12.5Z,125312532.5,10B,43.0858293,44.2216831,322.15,0.1,4.4,34.3,706189.56,-51899.5,27.1,0.0078125,322.149993896484,5.62608695708511,,0.997078645292298,1.65999999642372
1973-12-21T09:02:12.75Z,125312532.75,10B,43.0858293,44.2216831,322.15,0.1,4.5,34.3,706189.56,-51899.51,27.1,0,322.149993896484,5.77272727149577,,0.99694384073084,1.90999999642372
1973-12-21T09:02:13Z,125312533,10B,43.0858293,44.2216831,322.15,0,4.6,34.3,706189.56,-51899.51,27.1,0.0107449614671218,322.149993896484,5.86551724244241,,0.995849199097673,2.15999999642372
1973-12-21T09:02:13.25Z,125312533.25,10B,43.0858293,44.2216831,322.15,0,4.5,34.3,706189.56,-51899.51,27.1,0.010009765625,322.149993896484,5.77272727149577,,0.995852345352427,2.40999999642372
1973-12-21T09:02:13.5Z,125312533.5,10B,43.0858293,44.2216831,322.15,0,4.5,34.3,706189.56,-51899.51,27.1,0.01171875,322.149993896484,5.6181818144873,,0.996833724625625,2.65999999642372
1973-12-21T09:02:13.75Z,125312533.75,10B,43.0858293,44.2216831,322.15,0,4.5,34.3,706189.56,-51899.51,27.1,0.00390625,322.149993896484,5.4,,0.996889367109421,2.90999999642372
1973-12-21T09:02:14Z,125312534,10B,43.0858293,44.2216831,322.15,0,4.5,34.3,706189.56,-51899.51,27.1,0,322.149993896484,5.17272727149577,,0.996917188351318,3.15999999642372
1973-12-21T09:02:14.25Z,125312534.25,10B,43.0858293,44.2216831,322.15,0,4.5,34.3,706189.56,-51899.51,27.1,0,322.149993896484,4.94545454299153,,0.996917188351318,3.40999999642372
1973-12-21T09:02:14.5Z,125312534.5,10B,43.0858293,44.2216831,322.15,0,4.5,34.3,706189.56,-51899.51,27.1,0,322.149993896484,4.7181818144873,,0.996917188351318,3.65999999642372
1973-12-21T09:02:14.75Z,125312534.75,10B,43.0858293,44.2216831,322.15,0,4.5,34.3,706189.56,-51899.51,27.1,0,322.149993896484,4.39166667391029,,0.996917188351318,3.90999999642372
1973-12-21T09:02:15Z,125312535,10B,43.0858293,44.2216831,322.15,0,4.5,34.3,706189.56,-51899.51,27.1,0,322.149993896484,4.18333333747254,,0.996917188351318,4.15999999642372
1973-12-21T09:02:15.25Z,125312535.25,10B,43.0858293,44.2216831,322.15,0,4.5,34.3,706189.56,-51899.51,27.1,0,322.149993896484,3.97499999999999,,0.996917188351318,4.40999999642372
1973-12-21T09:02:15.5Z,125312535.5,10B,43.0858293,44.2216831,322.15,0,4.5,34.3,706189.56,-51899.51,27.1,0,322.149993896484,3.87500000058207,,0.996917188351318,4.65999999642372
1973-12-21T09:02:15.75Z,125312535.75,10B,43.0858293,44.2216831,322.15,0,4.5,34.3,706189.56,-51899.51,27.1,0,322.149993896484,3.83593750061844,,0.996917188351318,4.90999999642372
1973-12-21T09:02:16Z,125312536,10B,43.0858293,44.2216831,322.15,0,4.5,34.3,706189.56,-51899.51,27.1,0,322.149993896484,3.79801980240382,,0.996917188351318,5.15999999642372
1973-12-21T09:02:16.25Z,125312536.25,10B,43.0858293,44.2216831,322.15,0,4.5,34.3,706189.56,-51899.51,27.1,0,322.149993896484,3.77326732728775,,0.996917188351318,5.40999999642372
1973-12-21T09:02:16.5Z,125312536.5,10B,43.0858293,44.2216831,322.15,0,4.5,34.3,706189.56,-51899.51,27.1,0,322.149993896484,3.74851485217169,,0.996917188351318,5.65999999642372
1973-12-21T09:02:16.75Z,125312536.75,10B,43.0858293,44.2216831,322.15,0,4.5,34.3,706189.56,-51899.51,27.1,0,322.149993896484,3.72376237705563,,0.996917188351318,5.90999999642372
1973-12-21T09:02:17Z,125312537,10B,43.0858293,44.2216831,322.15,0,4.5,34.3,706189.56,-51899.51,27.1,0,322.149993896484,3.69859155062597,,0.996917188351318,6.15999999642372
1973-12-21T09:02:17.25Z,125312537.25,10B,43.0858293,44.2216831,322.15,0,4.5,34.3,706189.56,-51899.51,27.1,0,322.149993896484,3.66338028269517,,0.996917188351318,6.40999999642372
1973-12-21T09:02:17.5Z,125312537.5,10B,43.0858293,44.2216831,322.15,0,4.5,34.3,706189.56,-51899.51,27.1,0,322.149993896484,3.62816901476437,,0.996917188351318,6.65999999642372
1973-12-21T09:02:17.75Z,125312537.75,10B,43.0858293,44.2216831,322.15,0,4.5,34.3,706189.56,-51899.51,27.1,0,322.149993896484,3.59568965541604,,0.996917188351318,6.90999999642372
1973-12-21T09:02:18Z,125312538,10B,43.0858293,44.2216831,322.15,0,4.5,34.3,706189.56,-51899.51,27.1,0,322.149993896484,3.57413793121166,,0.996917188351318,7.15999999642372
1973-12-21T09:02:18.25Z,125312538.25,10B,43.0858293,44.2216831,322.15,0,4.5,34.3,706189.56,-51899.51,27.1,0,322.149993896484,3.55258620700728,,0.996917188351318,7.40999999642372
1973-12-21T09:02:18.5Z,125312538.5,10B,43.0858293,44.2216831,322.15,0,4.5,34.3,706189.56,-51899.51,27.1,0,322.149993896484,3.5310344828029,,0.996917188351318,7.65999999642372
1973-12-21T09:02:18.75Z,125312538.75,10B,43.0858293,44.2216831,322.15,0,4.5,34.3,706189.56,-51899.51,27.1,0,322.149993896484,3.50948275859852,,0.996917188351318,7.90999999642372
1973-12-21T09:02:19Z,125312539,10B,43.0858293,44.2216831,322.15,0,4.5,34.3,706189.56,-51899.51,27.1,0,322.149993896484,3.51129032254188,,0.996917188351318,8.15999999642372
1973-12-21T09:02:19.25Z,125312539.25,10B,43.0858293,44.2216831,322.15,0,4.5,34.3,706189.56,-51899.51,27.1,0,322.149993896484,3.5314516127094,,0.996917188351318,8.40999999642372
1973-12-21T09:02:19.5Z,125312539.5,10B,43.0858293,44.2216831,322.15,0,4.5,34.3,706189.56,-51899.51,27.1,0,322.149993896484,3.55161290287692,,0.996917188351318,8.65999999642372
1973-12-21T09:02:19.75Z,125312539.75,10B,43.0858293,44.2216831,322.15,0,4.5,34.3,706189.56,-51899.51,27.1,0,322.149993896484,3.57177419304445,,0.996917188351318,8.90999999642372
1973-12-21T09:02:20Z,125312540,10B,43.0858293,44.2216831,322.15,0,4.5,34.3,706189.56,-51899.51,27.1,0,322.149993896484,3.59193548321197,,0.996917188351318,9.15999999642372
1973-12-21T09:02:20.25Z,125312540.25,10B,43.0858293,44.2216831,322.15,0,4.5,34.3,706189.56,-51899.51,27.1,0,322.149993896484,3.61612903143108,,0.996917188351318,9.40999999642372
1973-12-21T09:02:20.5Z,125312540.5,10B,43.0858293,44.2216831,322.15,0,4.5,34.3,706189.56,-51899.51,27.1,0,322.149993896484,3.64301075208517,,0.996917188351318,9.65999999642372
1973-12-21T09:02:20.75Z,125312540.75,10B,43.0858293,44.2216831,322.15,0,4.5,34.3,706189.56,-51899.51,27.1,0,322.149993896484,3.66989247273925,,0.996917188351318,9.90999999642372
1973-12-21T09:02:21Z,125312541,10B,43.0858293,44.2216831,322.15,0,4.5,34.3,706189.56,-51899.51,27.1,0,322.149993896484,3.69677419339333,,0.996917188351318,10.1599999964237
1973-12-21T09:02:21.25Z,125312541.25,10B,43.0858293,44.2216831,322.15,0,4.5,34.3,706189.56,-51899.51,27.1,0,322.149993896484,3.72894736805988,,0.996917188351318,10.4099999964237
1973-12-21T09:02:21.5Z,125312541.5,10B,43.0858293,44.2216831,322.15,0,4.5,34.3,706189.56,-51899.51,27.1,0,322.149993896484,3.76184210466979,,0.996917188351318,10.6599999964237
1973-12-21T09:02:21.75Z,125312541.75,10B,43.0858293,44.2216831,322.15,0,4.5,34.3,706189.56,-51899.51,27.1,0,322.149993896484,3.79473684127971,,0.996917188351318,10.9099999964237
1973-12-21T09:02:22Z,125312542,10B,43.0858293,44.2216831,322.15,0,4.5,34.3,706189.56,-51899.51,27.1,0,322.149993896484,3.78900523592478,,0.996917188351318,11.1599999964237
1973-12-21T09:02:22.25Z,125312542.25,10B,43.0858293,44.2216831,322.15,0,4.5,34.3,706189.56,-51899.51,27.1,0,322.149993896484,3.77591623066466,,0.996917188351318,11.4099999964237
1973-12-21T09:02:22.5Z,125312542.5,10B,43.0858293,44.2216831,322.15,0,4.5,34.3,706189.56,-51899.51,27.1,0,322.149993896484,3.76282722540455,,0.996917188351318,11.6599999964237
1973-12-21T09:02:22.75Z,125312542.75,10B,43.0858293,44.2216831,322.15,0,4.5,34.3,706189.56,-51899.51,27.1,0,322.149993896484,3.74973822014444,,0.996917188351318,11.9099999964237
1973-12-21T09:02:23Z,125312543,10B,43.0858293,44.2216831,322.15,0,4.5,34.3,706189.56,-51899.51,27.1,0,322.149993896484,3.73664921488433,,0.996917188351318,12.1599999964237
1973-12-21T09:02:23.25Z,125312543.25,10B,43.0858293,44.2216831,322.15,0,4.5,34.3,706189.56,-51899.51,27.1,0,322.149993896484,3.72356020962421,,0.996917188351318,12.4099999964237
1973-12-21T09:02:23.5Z,125312543.5,10B,43.0858293,44.2216831,322.15,0,4.5,34.3,706189.56,-51899.51,27.1,0,322.149993896484,3.7104712043641,,0.996917188351318,12.6599999964237
1973-12-21T09:02:23.75Z,125312543.75,10B,43.0858293,44.2216831,322.15,0,4.5,34.3,706189.56,-51899.51,27.1,0,322.149993896484,3.71282051203676,,0.996917188351318,12.9099999964237
1973-12-21T09:02:24Z,125312544,10B,43.0858293,44.2216831,322.15,0,4.5,34.3,706189.56,-51899.51,27.1,0,322.149993896484,3.77692307604135,,0.996917188351318,13.1599999964237
1973-12-21T09:02:24.25Z,125312544.25,10B,43.0858293,44.2216831,322.15,0,4.5,34.3,706189.56,-51899.51,27.1,0,322.149993896484,3.81176470562455,,0.996917188351318,13.4099999964237
1973-12-21T09:02:24.5Z,125312544.5,10B,43.0858293,44.2216831,322.15,0,4.5,34.3,706189.56,-51899.51,27.1,0,322.149993896484,3.83014705857378,,0.996917188351318,13.6599999964237
1973-12-21T09:02:24.75Z,125312544.75,10B,43.0858293,44.2216831,322.15,0,4.5,34.3,706189.56,-51899.51,27.1,0,322.149993896484,3.84852941152301,,0.996917188351318,13.9099999964237
1973-12-21T09:02:25Z,125312545,10B,43.0858293,44.2216831,322.15,0,4.5,34.3,706189.56,-51899.51,27.1,0,322.149993896484,3.86691176447225,,0.996917188351318,14.1599999964237
1973-12-21T09:02:25.25Z,125312545.25,10B,43.0858293,44.2216831,322.15,0,4.5,34.3,706189.56,-51899.51,27.1,0,322.149993896484,3.88529411742148,,0.996917188351318,14.4099999964237
1973-12-21T09:02:25.5Z,125312545.5,10B,43.0858293,44.2216831,322.15,0,4.5,34.3,706189.56,-51899.51,27.1,0,322.149993896484,3.90999999940395,,0.996917188351318,14.6599999964237
1973-12-21T09:02:25.75Z,125312545.75,10B,43.0858293,44.2216831,322.15,0,4.5,34.3,706189.56,-51899.51,27.1,0,322.149993896484,3.95999999940395,,0.996917188351318,14.9099999964237
1973-12-21T09:02:26Z,125312546,10B,43.0858293,44.2216831,322.15,0,4.5,34.3,706189.56,-51899.51,27.1,0,322.149993896484,4.01785714171675,,0.996917188351318,15.1599999964237
1973-12-21T09:02:26.25Z,125312546.25,10B,43.0858293,44.2216831,322.15,0,4.5,34.3,706189.56,-51899.51,27.1,0,322.149993896484,4.10799999833107,,0.996917188351318,15.4099999964237
1973-12-21T09:02:26.5Z,125312546.5,10B,43.0858293,44.2216831,322.15,0,4.5,34.3,706189.56,-51899.51,27.1,0,322.149993896484,4.20740740597657,,0.996917188351318,15.6599999964237
1973-12-21T09:02:26.75Z,125312546.75,10B,43.0858293,44.2216831,322.15,0,4.5,34.3,706189.56,-51899.51,27.1,0,322.149993896484,4.3,,0.996917188351318,15.9099999964237
1973-12-21T09:02:27Z,125312547,10B,43.0858293,44.2216831,322.15,0,4.5,34.3,706189.56,-51899.51,27.1,0,322.149993896484,4.40740740597657,,0.996917188351318,16.1599999964237
1973-12-21T09:02:27.25Z,125312547.25,10B,43.0858293,44.2216831,322.15,0,4.5,34.3,706189.56,-51899.51,27.1,0,322.149993896484,4.5,,0.996917188351318,16.4099999964237
1973-12-21T09:02:27.5Z,125312547.5,10B,43.0858293,44.2216831,322.15,0,4.5,34.3,706189.56,-51899.51,27.1,0,322.149993896484,4.6,,0.996917188351318,16.6599999964237
1973-12-21T09:02:27.75Z,125312547.75,10B,43.0858293,44.2216831,322.15,0,4.5,34.3,706189.56,-51899.51,27.1,0,322.149993896484,4.7,,0.996917188351318,16.9099999964237
1973-12-21T09:02:28Z,125312548,10B,43.0858293,44.2216831,322.15,0,4.5,34.3,706189.56,-51899.51,27.1,0,322.149993896484,4.8,,0.996917188351318,17.1599999964237
1973-12-21T09:02:28.25Z,125312548.25,10B,43.0858293,44.2216831,322.15,0,4.5,34.3,706189.56,-51899.51,27.1,0,322.149993896484,4.88928571390558,,0.996917188351318,17.4099999964237
1973-12-21T09:02:28.5Z,125312548.5,10B,43.0858293,44.2216831,322.15,0,4.5,34.3,706189.56,-51899.51,27.1,0,322.149993896484,4.97586206683931,,0.996917188351318,17.6599999964237
1973-12-21T09:02:28.75Z,125312548.75,10B,43.0858293,44.2216831,322.15,0,4.5,34.3,706189.56,-51899.51,27.1,0,322.149993896484,5.06666666482702,,0.996917188351318,17.9099999964237
1973-12-21T09:02:29Z,125312549,10B,43.0858293,44.2216831,322.15,0,4.5,34.3,706189.56,-51899.51,27.1,0,322.149993896484,5.15333333267106,,0.996917188351318,18.1599999964237
1973-12-21T09:02:29.25Z,125312549.25,10B,43.0858293,44.2216831,322.15,0,4.5,34.3,706189.56,-51899.51,27.1,0,322.149993896484,5.23928571390558,,0.996917188351318,18.4099999964237
1973-12-21T09:02:29.5Z,125312549.5,10B,43.0858293,44.2216831,322.15,0,4.5,34.3,706189.56,-51899.51,27.1,0,322.149993896484,5.32666666633553,,0.996917188351318,18.6599999964237
1973-12-21T09:02:29.75Z,125312549.75,10B,43.0858293,44.2216831,322.15,0,4.5,34.3,706189.56,-51899.51,27.1,0,322.149993896484,5.41071428609442,,0.996917188351318,18.9099999964237
1973-12-21T09:02:30Z,125312550,10B,43.0858293,44.2216831,322.15,0,4.5,34.3,706189.56,-51899.51,27.1,0,322.149993896484,5.5,,0.996917188351318,19.1599999964237
1973-12-21T09:02:30.25Z,125312550.25,10B,43.0858293,44.2216831,322.15,0,4.5,34.3,706189.56,-51899.51,27.1,0,322.149993896484,5.35483870983247,,0.996917188351318,19.4099999964237
1973-12-21T09:02:30.5Z,125312550.5,10B,43.0858293,44.2216831,322.15,0,4.5,34.3,706189.56,-51899.51,27.1,0,322.149993896484,5.2783783791403,,0.996917188351318,19.6599999964237
1973-12-21T09:02:30.75Z,125312550.75,10B,43.0858293,44.2216831,322.15,0,4.5,34.3,706189.56,-51899.51,27.1,0,322.149993896484,5.2108108124435,,0.996917188351318,19.9099999964237
1973-12-21T09:02:31Z,125312551,10B,43.0858293,44.2216831,322.15,0,4.5,34.3,706189.56,-51899.51,27.1,0,322.149993896484,5.14324324346092,,0.996917188351318,20.1599999964237
1973-12-21T09:02:31.25Z,125312551.25,10B,43.0858293,44.2216831,322.15,0,4.5,34.3,706189.56,-51899.51,27.1,0,322.149993896484,5.07567567502259,,0.996917188351318,20.4099999964237
1973-12-21T09:02:31.5Z,125312551.5,10B,43.0858293,44.2216831,322.15,0,4.5,34.3,706189.56,-51899.51,27.1,0,322.149993896484,5.00810810832578,,0.996917188351318,20.6599999964237
1973-12-21T09:02:31.75Z,125312551.75,10B,43.0858293,44.2216831,322.15,0,4.5,34.3,706189.56,-51899.51,27.1,0,322.149993896484,4.940540541629,,0.996917188351318,20.9099999964237
1973-12-21T09:02:32Z,125312552,10B,43.0858293,44.2216831,322.15,0,4.5,34.3,706189.56,-51899.51,27.1,0,322.149993896484,4.91754385882357,,0.996917188351318,21.1599999964237
1973-12-21T09:02:32.25Z,125312552.25,10B,43.0858293,44.2216831,322.15,0,4.5,34.3,706189.56,-51899.51,27.1,0,322.149993896484,4.96140350849675,,0.996917188351318,21.4099999964237
1973-12-21T09:02:32.5Z,125312552.5,10B,43.0858293,44.2216831,322.15,0,4.5,34.3,706189.56,-51899.51,27.1,0,322.149993896484,5.00434782627475,,0.996917188351318,21.6599999964237
1973-12-21T09:02:32.75Z,125312552.75,10B,43.0858293,44.2216831,322.15,0,4.5,34.3,706189.56,-51899.51,27.1,0,322.149993896484,5.04057971045791,,0.996917188351318,21.9099999964237
1973-12-21T09:02:33Z,125312553,10B,43.0858293,44.2216831,322.15,0,4.5,34.3,706189.56,-51899.51,27.1,0,322.149993896484,5.07681159464108,,0.996917188351318,22.1599999964237
1973-12-21T09:02:33.25Z,125312553.25,10B,43.0858293,44.2216831,322.15,0,4.5,34.3,706189.56,-51899.51,27.1,0,322.149993896484,5.11111111151992,,0.996917188351318,22.4099999964237
1973-12-21T09:02:33.5Z,125312553.5,10B,43.0858293,44.2216831,322.15,0,4.5,34.3,706189.56,-51899.51,27.1,0,322.149993896484,5.14197530895994,,0.996917188351318,22.6599999964237
1973-12-21T09:02:33.75Z,125312553.75,10B,43.0858293,44.2216831,322.15,0,4.5,34.3,706189.56,-51899.51,27.1,0,322.149993896484,5.17283950639996,,0.996917188351318,22.9099999964237
1973-12-21T09:02:34Z,125312554,10B,43.0858293,44.2216831,322.15,0,4.5,34.3,706189.56,-51899.51,27.1,0,322.149993896484,5.2081081083258,,0.996917188351318,23.1599999964237
1973-12-21T09:02:34.25Z,125312554.25,10B,43.0858293,44.2216831,322.15,0,4.5,34.3,706189.56,-51899.51,27.1,0,322.149993896484,5.27567567502259,,0.996917188351318,23.4099999964237
1973-12-21T09:02:34.5Z,125312554.5,10B,43.0858293,44.2216831,322.15,0,4.5,34.3,706189.56,-51899.51,27.1,0,322.149993896484,5.38888889072854,,0.996917188351318,23.6599999964237
1973-12-21T09:02:34.75Z,125312554.75,10B,43.0858293,44.2216831,322.15,0,4.5,34.3,706189.56,-51899.51,27.1,0,322.149993896484,5.52777777731787,,0.996917188351318,23.9099999964237
1973-12-21T09:02:35Z,125312555,10B,43.0858293,44.2216831,322.15,0,4.5,34.3,706189.56,-51899.51,27.1,0,322.149993896484,5.67499999767169,,0.996917188351318,24.1599999964237
1973-12-21T09:02:35.25Z,125312555.25,10B,43.0858293,44.2216831,322.15,0,4.5,34.3,706189.56,-51899.51,27.1,0,322.149993896484,5.82941176264344,,0.996917188351318,24.4099999964237
1973-12-21T09:02:35.5Z,125312555.5,10B,43.0858293,44.2216831,322.15,0,4.5,34.3,706189.56,-51899.51,27.1,0,322.149993896484,5.98666666865349,,0.996917188351318,24.6599999964237
1973-12-21T09:02:35.75Z,125312555.75,10B,43.0858293,44.2216831,322.15,0,4.5,34.3,706189.56,-51899.51,27.1,0,322.149993896484,6.14615384439039,,0.996917188351318,24.9099999964237
1973-12-21T09:02:36Z,125312556,10B,43.0858293,44.2216831,322.15,0,4.5,34.3,706189.56,-51899.51,27.1,0,322.149993896484,6.31428571124466,,0.996917188351318,25.1599999964237
1973-12-21T09:02:36.25Z,125312556.25,10B,43.0858293,44.2216831,322.15,0,4.5,34.3,706189.56,-51899.51,27.1,0,322.149993896484,6.37636363710253,,0.996917188351318,25.4099999964237
1973-12-21T09:02:36.5Z,125312556.5,10B,43.0858293,44.2216831,322.15,0,4.5,34.3,706189.56,-51899.51,27.1,0,322.149993896484,6.33090909140168,,0.996917188351318,25.6599999964237
1973-12-21T09:02:36.75Z,125312556.75,10B,43.0858293,44.2216831,322.15,0,4.5,34.3,706189.56,-51899.51,27.1,0,322.149993896484,6.27575757616807,,0.996917188351318,25.9099999964237
1973-12-21T09:02:37Z,125312557,10B,43.0858293,44.2216831,322.15,0,4.5,34.3,706189.56,-51899.51,27.1,0,322.149993896484,6.2,,0.996917188351318,26.1599999964237
1973-12-21T09:02:37.25Z,125312557.25,10B,43.0858293,44.2216831,322.15,0,4.5,34.3,706189.56,-51899.51,27.1,0,322.149993896484,6.12647058900869,,0.996917188351318,26.4099999964237
1973-12-21T09:02:37.5Z,125312557.5,10B,43.0858293,44.2216831,322.15,0,4.5,34.3,706189.56,-51899.51,27.1,0,322.149993896484,6.04999999999999,,0.996917188351318,26.6599999964237
1973-12-21T09:02:37.75Z,125312557.75,10B,43.0858293,44.2216831,322.15,0,4.5,34.3,706189.56,-51899.51,27.1,0,322.149993896484,5.97187499956344,,0.996917188351318,26.9099999964237
1973-12-21T09:02:38Z,125312558,10B,43.0858293,44.2216831,322.15,0,4.5,34.3,706189.56,-51899.51,27.1,0,322.149993896484,5.8935483884923,,0.996917188351318,27.1599999964237
1973-12-21T09:02:38.25Z,125312558.25,10B,43.0858293,44.2216831,322.15,0,4.5,34.3,706189.56,-51899.51,27.1,0,322.149993896484,5.8129032278222,,0.996917188351318,27.4099999964237
1973-12-21T09:02:38.5Z,125312558.5,10B,43.0858293,44.2216831,322.15,0,4.5,34.3,706189.56,-51899.51,27.1,0,322.149993896484,5.79189189210958,,0.996917188351318,27.6599999964237
1973-12-21T09:02:38.75Z,125312558.75,10B,43.0858293,44.2216831,322.15,0,4.5,34.3,706189.56,-51899.51,27.1,0,322.149993896484,5.78223938241487,,0.996917188351318,27.9099999964237
1973-12-21T09:02:39Z,125312559,10B,43.0858293,44.2216831,322.15,0,4.5,34.3,706189.56,-51899.51,27.1,0,322.149993896484,5.77258687272015,,0.996917188351318,28.1599999964237
1973-12-21T09:02:39.25Z,125312559.25,10B,43.0858293,44.2216831,322.15,0,4.5,34.3,706189.56,-51899.51,27.1,0,322.149993896484,5.76293436302543,,0.996917188351318,28.4099999964237
1973-12-21T09:02:39.5Z,125312559.5,10B,43.0858293,44.2216831,322.15,0,4.5,34.3,706189.56,-51899.51,27.1,0,322.149993896484,5.75328185333071,,0.996917188351318,28.6599999964237
1973-12-21T09:02:39.75Z,125312559.75,10B,43.0858293,44.2216831,322.15,0,4.5,34.3,706189.56,-51899.51,27.1,0,322.149993896484,5.74362934363599,,0.996917188351318,28.9099999964237
1973-12-21T09:02:40Z,125312560,10B,43.0858293,44.2216831,322.15,0,4.5,34.3,706189.56,-51899.51,27.1,0,322.149993896484,5.73397683394128,,0.996917188351318,29.1599999964237
1973-12-21T09:02:40.25Z,125312560.25,10B,43.0858293,44.2216831,322.15,0,4.5,34.3,706189.56,-51899.51,27.1,0,322.149993896484,5.72432432424656,,0.996917188351318,29.4099999964237
1973-12-21T09:02:40.5Z,125312560.5,10B,43.0858293,44.2216831,322.15,0,4.5,34.3,706189.56,-51899.51,27.1,0,322.149993896484,5.71467181455184,,0.996917188351318,29.6599999964237
1973-12-21T09:02:40.75Z,125312560.75,10B,43.0858293,44.2216831,322.15,0,4.5,34.3,706189.56,-51899.51,27.1,0,322.149993896484,5.70501930485712,,0.996917188351318,29.9099999964237
1973-12-21T09:02:41Z,125312561,10B,43.0858293,44.2216831,322.15,0,4.5,34.3,706189.56,-51899.51,27.1,0,322.149993896484,5.67857142781116,,0.996917188351318,30.1599999964237
1973-12-21T09:02:41.25Z,125312561.25,10B,43.0858293,44.2216831,322.15,0,4.5,34.3,706189.56,-51899.51,27.1,0,322.149993896484,5.63392857085836,,0.996917188351318,30.4099999964237
1973-12-21T09:02:41.5Z,125312561.5,10B,43.0858293,44.2216831,322.15,0,4.5,34.3,706189.56,-51899.51,27.1,0,322.149993896484,5.58965517197083,,0.996917188351318,30.6599999964237
1973-12-21T09:02:41.75Z,125312561.75,10B,43.0858293,44.2216831,322.15,0,4.5,34.3,706189.56,-51899.51,27.1,0,322.149993896484,5.54655172356207,,0.996917188351318,30.9099999964237
1973-12-21T09:02:42Z,125312562,10B,43.0858293,44.2216831,322.15,0,4.5,34.3,706189.56,-51899.51,27.1,0,322.149993896484,5.50344827515331,,0.996917188351318,31.1599999964237
1973-12-21T09:02:42.25Z,125312562.25,10B,43.0858293,44.2216831,322.15,0,4.5,34.3,706189.56,-51899.51,27.1,0,322.149993896484,5.46406249938154,,0.996917188351318,31.4099999964237
1973-12-21T09:02:42.5Z,125312562.5,10B,43.0858293,44.2216831,322.15,0,4.5,34.3,706189.56,-51899.51,27.1,0,322.149993896484,5.42499999941791,,0.996917188351318,31.6599999964237
1973-12-21T09:02:42.75Z,125312562.75,10B,43.0858293,44.2216831,322.15,0,4.5,34.3,706189.56,-51899.51,27.1,0,322.149993896484,5.38846153802067,,0.996917188351318,31.9099999964237
1973-12-21T09:02:43Z,125312563,10B,43.0858293,44.2216831,322.15,0,4.5,34.3,706189.56,-51899.51,27.1,0,322.149993896484,5.35641025601837,,0.996917188351318,32.1599999964237
1973-12-21T09:02:43.25Z,125312563.25,10B,43.0858293,44.2216831,322.15,0,4.5,34.3,706189.56,-51899.51,27.1,0,322.149993896484,5.32435897401607,,0.996917188351318,32.4099999964237
1973-12-21T09:02:43.5Z,125312563.5,10B,43.0858293,44.2216831,322.15,0,4.5,34.3,706189.56,-51899.51,27.1,0,322.149993896484,5.29117647033043,,0.996917188351318,32.6599999964237
1973-12-21T09:02:43.75Z,125312563.75,10B,43.0858293,44.2216831,322.15,0,4.5,34.3,706189.56,-51899.51,27.1,0,322.149993896484,5.25441176483477,,0.996917188351318,32.9099999964237
1973-12-21T09:02:44Z,125312564,10B,43.0858293,44.2216831,322.15,0,4.5,34.3,706189.56,-51899.51,27.1,0,322.149993896484,5.21764705933912,,0.996917188351318,33.1599999964237
1973-12-21T09:02:44.25Z,125312564.25,10B,43.0858293,44.2216831,322.15,0,4.5,34.3,706189.56,-51899.51,27.1,0,322.149993896484,5.17796610263667,,0.996917188351318,33.4099999964237
1973-12-21T09:02:44.5Z,125312564.5,10B,43.0858293,44.2216831,322.15,0,4.5,34.3,706189.56,-51899.51,27.1,0,322.149993896484,5.13559322153757,,0.996917188351318,33.6599999964237
1973-12-21T09:02:44.75Z,125312564.75,10B,43.0858293,44.2216831,322.15,0,4.5,34.3,706189.56,-51899.51,27.1,0,322.149993896484,5.08709677636437,,0.996917188351318,33.9099999964237
1973-12-21T09:02:45Z,125312565,10B,43.0858293,44.2216831,322.15,0,4.5,34.3,706189.56,-51899.51,27.1,0,322.149993896484,5.00645161181779,,0.996917188351318,34.1599999964237
1973-12-21T09:02:45.25Z,125312565.25,10B,43.0858293,44.2216831,322.15,0,4.5,34.3,706189.56,-51899.51,27.1,0,322.149993896484,4.93235294066085,,0.996917188351318,34.4099999964237
1973-12-21T09:02:45.5Z,125312565.5,10B,43.0858293,44.2216831,322.15,0,4.5,34.3,706189.56,-51899.51,27.1,0,322.149993896484,4.86111111088115,,0.996917188351318,34.6599999964237
1973-12-21T09:02:45.75Z,125312565.75,10B,43.0858293,44.2216831,322.15,0,4.5,34.3,706189.56,-51899.51,27.1,0,322.149993896484,4.7918918916742,,0.996917188351318,34.9099999964237
1973-12-21T09:02:46Z,125312566,10B,43.0858293,44.2216831,322.15,0,4.5,34.3,706189.56,-51899.51,27.1,0,322.149993896484,4.72432432497739,,0.996917188351318,35.1599999964237
1973-12-21T09:02:46.25Z,125312566.25,10B,43.0858293,44.2216831,322.15,0,4.5,34.3,706189.56,-51899.51,27.1,0,322.149993896484,4.65789473725487,,0.996917188351318,35.4099999964237
1973-12-21T09:02:46.5Z,125312566.5,10B,43.0858293,44.2216831,322.15,0,4.5,34.3,706189.56,-51899.51,27.1,0,322.149993896484,4.60731707352531,,0.996917188351318,35.6599999964237
1973-12-21T09:02:46.75Z,125312566.75,10B,43.0858293,44.2216831,322.15,0,4.5,34.3,706189.56,-51899.51,27.1,0,322.149993896484,4.66829268381328,,0.996917188351318,35.9099999964237
1973-12-21T09:02:47Z,125312567,10B,43.0858293,44.2216831,322.15,0,4.5,34.3,706189.56,-51899.51,27.1,0,322.149993896484,4.77499999767169,,0.996917188351318,36.1599999964237
1973-12-21T09:02:47.25Z,125312567.25,10B,43.0858293,44.2216831,322.15,0,4.5,34.3,706189.56,-51899.51,27.1,0,322.149993896484,4.92777777731787,,0.996917188351318,36.4099999964237
1973-12-21T09:02:47.5Z,125312567.5,10B,43.0858293,44.2216831,322.15,0,4.5,34.3,706189.56,-51899.51,27.1,0,322.149993896484,5.07499999767169,,0.996917188351318,36.6599999964237
1973-12-21T09:02:47.75Z,125312567.75,10B,43.0858293,44.2216831,322.15,0,4.5,34.3,706189.56,-51899.51,27.1,0,322.149993896484,5.23333333002196,,0.996917188351318,36.9099999964237
1973-12-21T09:02:48Z,125312568,10B,43.0858293,44.2216831,322.15,0,4.5,34.3,706189.56,-51899.51,27.1,0,322.149993896484,5.4,,0.996917188351318,37.1599999964237
1973-12-21T09:02:48.25Z,125312568.25,10B,43.0858293,44.2216831,322.15,0,4.5,34.3,706189.56,-51899.51,27.1,0,322.149993896484,5.55882352528688,,0.996917188351318,37.4099999964237
1973-12-21T09:02:48.5Z,125312568.5,10B,43.0858293,44.2216831,322.15,0,4.5,34.3,706189.56,-51899.51,27.1,0,322.149993896484,5.73333333002196,,0.996917188351318,37.6599999964237
1973-12-21T09:02:48.75Z,125312568.75,10B,43.0858293,44.2216831,322.15,0,4.5,34.3,706189.56,-51899.51,27.1,0,322.149993896484,5.9,,0.996917188351318,37.9099999964237
1973-12-21T09:02:49Z,125312569,10B,43.0858293,44.2216831,322.15,0,4.5,34.3,706189.56,-51899.51,27.1,0,322.149993896484,5.82857143039604,,0.996917188351318,38.1599999964237
1973-12-21T09:02:49.25Z,125312569.25,10B,43.0858293,44.2216831,322.15,0,4.5,34.3,706189.56,-51899.51,27.1,0,322.149993896484,5.76052631764695,,0.996917188351318,38.4099999964237
1973-12-21T09:02:49.5Z,125312569.5,10B,43.0858293,44.2216831,322.15,0,4.5,34.3,706189.56,-51899.51,27.1,0,322.149993896484,5.69411764834785,,0.996917188351318,38.6599999964237
1973-12-21T09:02:49.75Z,125312569.75,10B,43.0858293,44.2216831,322.15,0,4.5,34.3,706189.56,-51899.51,27.1,0,322.149993896484,5.62058823735654,,0.996917188351318,38.9099999964237
1973-12-21T09:02:50Z,125312570,10B,43.0858293,44.2216831,322.15,0,4.5,34.3,706189.56,-51899.51,27.1,0,322.149993896484,5.54705882404501,,0.996917188351318,39.1599999964237
1973-12-21T09:02:50.25Z,125312570.25,10B,43.0858293,44.2216831,322.15,0,4.5,34.3,706189.56,-51899.51,27.1,0,322.149993896484,5.47096774100512,,0.996917188351318,39.4099999964237
1973-12-21T09:02:50.5Z,125312570.5,10B,43.0858293,44.2216831,322.15,0,4.5,34.3,706189.56,-51899.51,27.1,0,322.149993896484,5.38888888888889,,0.996907881353671,39.6599999964237
1973-12-21T09:02:50.75Z,125312570.75,10B,43.0858293,44.2216831,322.15,0,4.5,34.3,706189.56,-51899.51,27.1,0,322.149993896484,5.30277777513328,,0.996898574356024,39.9099999964237
1973-12-21T09:02:51Z,125312571,10B,43.0858293,44.2216831,322.15,0,4.5,34.3,706189.56,-51899.51,27.1,0,322.149993896484,5.3722222196927,,0.996892369690925,40.1599999964237
1973-12-21T09:02:51.25Z,125312571.25,10B,43.0858293,44.2216831,322.15,0,4.5,34.3,706189.56,-51899.51,27.1,0,322.149993896484,5.46818181448732,,0.996883062693278,40.4099999964237
1973-12-21T09:02:51.5Z,125312571.5,10B,43.0858293,44.2216831,322.15,0,4.5,34.3,706189.56,-51899.51,27.1,9.1552734375e-05,322.14990234375,5.57199999690056,,0.996892369690925,40.6599999964237
1973-12-21T09:02:51.75Z,125312571.75,10B,43.0858293,44.2216831,322.15,0,4.5,34.3,706189.56,-51899.51,27.1,0.00018310546875,322.149810791016,5.68181817873943,,0.996901676688572,40.9099999964237
1973-12-21T09:02:52Z,125312572,10B,43.0858293,44.2216831,322.15,0,4.5,34.3,706189.56,-51899.51,27.1,0.000244140625,322.149749755859,5.8,,0.996907881353671,41.1599999964237
1973-12-21T09:02:52.25Z,125312572.25,10B,43.0858293,44.2216831,322.15,0,4.5,34.3,706189.56,-51899.51,27.1,0.000335693359375,322.149658203125,5.92499999813736,,0.996917188351318,41.4099999964237
1973-12-21T09:02:52.5Z,125312572.5,10B,43.0858293,44.2216831,322.15,0,4.5,34.3,706189.56,-51899.51,27.1,0.000335693359375,322.149566650391,6.04999999627471,,0.996917188351318,41.6599999964237
1973-12-21T09:02:52.75Z,125312572.75,10B,43.0858293,44.2216831,322.15,0,4.5,34.3,706189.56,-51899.51,27.1,0.000335693359375,322.149475097656,6.1833333319536,,0.996917188351318,41.9099999964237
1973-12-21T09:02:53Z,125312573,10B,43.0858293,44.2216831,322.15,0,4.5,34.3,706189.56,-51899.51,27.1,0.000335693359375,322.1494140625,6.29586776881895,,0.996917188351318,42.1599999964237
1973-12-21T09:02:53.25Z,125312573.25,10B,43.0858293,44.2216831,322.15,0,4.5,34.3,706189.56,-51899.51,27.1,0.000335693359375,322.149322509766,6.2752066116822,,0.996917188351318,42.4099999964237
1973-12-21T09:02:53.5Z,125312573.5,10B,43.0858293,44.2216831,322.15,0,4.5,34.3,706189.56,-51899.51,27.1,0.000335693359375,322.149230957031,6.25454545454544,,0.996917188351318,42.6599999964237
1973-12-21T09:02:53.75Z,125312573.75,10B,43.0858293,44.2216831,322.15,0,4.5,34.3,706189.56,-51899.51,27.1,0.000335693359375,322.149139404297,6.23388429740869,,0.996917188351318,42.9099999964237
1973-12-21T09:02:54Z,125312574,10B,43.0858293,44.2216831,322.15,0,4.5,34.3,706189.56,-51899.51,27.1,0.000335693359375,322.149078369141,6.21322314027194,,0.996917188351318,43.1599999964237
1973-12-21T09:02:54.25Z,125312574.25,10B,43.0858293,44.2216831,322.15,0,4.5,34.3,706189.56,-51899.51,27.1,0.000335693359375,322.148986816406,6.18333333287342,,0.996917188351318,43.4099999964237
1973-12-21T09:02:54.5Z,125312574.5,10B,43.0858293,44.2216831,322.15,0,4.5,34.3,706189.56,-51899.51,27.1,0.000335693359375,322.148895263672,6.13703703713923,,0.996917188351318,43.6599999964237
1973-12-21T09:02:54.75Z,125312574.75,10B,43.0858293,44.2216831,322.15,0,4.5,34.3,706189.56,-51899.51,27.1,0.000335693359375,322.148803710938,6.08750000093132,,0.996917188351318,43.9099999964237
1973-12-21T09:02:55Z,125312575,10B,43.0858293,44.2216831,322.15,0,4.5,34.3,706189.56,-51899.51,27.1,0.000335693359375,322.148742675781,6.02500000186263,,0.996917188351318,44.1599999964237
1973-12-21T09:02:55.25Z,125312575.25,10B,43.0858293,44.2216831,322.15,0,4.5,34.3,706189.56,-51899.51,27.1,0.000335693359375,322.148651123047,6.10350877124187,,0.996917188351318,44.4099999964237
1973-12-21T09:02:55.5Z,125312575.5,10B,43.0858293,44.2216831,322.15,0,4.5,34.3,706189.56,-51899.51,27.1,0.000335693359375,322.148559570312,6.14736842091504,,0.996917188351318,44.6599999964237
1973-12-21T09:02:55.75Z,125312575.75,10B,43.0858293,44.2216831,322.15,0,4.5,34.3,706189.56,-51899.51,27.1,0.000335693359375,322.148468017578,6.19122807058821,,0.996917188351318,44.9099999964237
1973-12-21T09:02:56Z,125312576,10B,43.0858293,44.2216831,322.15,0,4.5,34.3,706189.56,-51899.51,27.1,0.000335693359375,322.148406982422,6.24761904812589,,0.996917188351318,45.1599999964237
1973-12-21T09:02:56.25Z,125312576.25,10B,43.0858293,44.2216831,322.15,0,4.5,34.3,706189.56,-51899.51,27.1,0.000335693359375,322.148315429688,6.30909090950141,,0.996917188351318,45.4099999964237
1973-12-21T09:02:56.5Z,125312576.5,10B,43.0858293,44.2216831,322.15,0,4.5,34.3,706189.56,-51899.51,27.1,0.000335693359375,322.148223876953,6.38484848566949,,0.996917188351318,45.6599999964237
1973-12-21T09:02:56.75Z,125312576.75,10B,43.0858293,44.2216831,322.15,0,4.5,34.3,706189.56,-51899.51,27.1,0.000335693359375,322.148132324219,6.46451612949743,,0.996917188351318,45.9099999964237
1973-12-21T09:02:57Z,125312577,10B,43.0858293,44.2216831,322.15,0,4.5,34.3,706189.56,-51899.51,27.1,0.000335693359375,322.148071289062,6.54827586118305,,0.996917188351318,46.1599999964237
1973-12-21T09:02:57.25Z,125312577.25,10B,43.0858293,44.2216831,322.15,0,4.5,34.3,706189.56,-51899.51,27.1,0.000335693359375,322.147979736328,6.61694915142939,,0.996917188351318,46.4099999964237
1973-12-21T09:02:57.5Z,125312577.5,10B,43.0858293,44.2216831,322.15,0,4.5,34.3,706189.56,-51899.51,27.1,0.000335693359375,322.147888183594,6.65932203252848,,0.996917188351318,46.6599999964237
1973-12-21T09:02:57.75Z,125312577.75,10B,43.0858293,44.2216831,322.15,0,4.5,34.3,706189.56,-51899.51,27.1,0.000335693359375,322.147796630859,6.7016393427005,,0.996917188351318,46.9099999964237
1973-12-21T09:02:58Z,125312578,10B,43.0858293,44.2216831,322.15,0,4.5,34.3,706189.56,-51899.51,27.1,0.000335693359375,322.147735595703,6.74262294929792,,0.996917188351318,47.1599999964237
1973-12-21T09:02:58.25Z,125312578.25,10B,43.0858293,44.2216831,322.15,0,4.5,34.3,706189.56,-51899.51,27.1,0.000335693359375,322.147644042969,6.78360655589534,,0.996917188351318,47.4099999964237
1973-12-21T09:02:58.5Z,125312578.5,10B,43.0858293,44.2216831,322.15,0,4.5,34.3,706189.56,-51899.51,27.1,0.000335693359375,322.147552490234,6.82884615235824,,0.996917188351318,47.6599999964237
1973-12-21T09:02:58.75Z,125312578.75,10B,43.0858293,44.2216831,322.15,0,4.5,34.3,706189.56,-51899.51,27.1,0.000335693359375,322.1474609375,6.87692307582092,,0.996917188351318,47.9099999964237
1973-12-21T09:02:59Z,125312579,10B,43.0858293,44.2216831,322.15,0,4.5,34.3,706189.56,-51899.51,27.1,0.000335693359375,322.147399902344,6.93095237968528,,0.996917188351318,48.1599999964237
1973-12-21T09:02:59.25Z,125312579.25,10B,43.0858293,44.2216831,322.15,0,4.5,34.3,706189.56,-51899.51,27.1,0.000335693359375,322.147308349609,6.99047618895566,,0.996917188351318,48.4099999964237
1973-12-21T09:02:59.5Z,125312579.5,10B,43.0858293,44.2216831,322.15,0,4.5,34.3,706189.56,-51899.51,27.1,0.000335693359375,322.147216796875,6.9300000014901,,0.996917188351318,48.6599999964237
1973-12-21T09:02:59.75Z,125312579.75,10B,43.0858293,44.2216831,322.15,0,4.5,34.3,706189.56,-51899.51,27.1,0.000335693359375,322.147125244141,6.88655462212233,,0.996917188351318,48.9099999964237
1973-12-21T09:03:00Z,125312580,10B,43.0858293,44.2216831,322.15,0,4.5,34.3,706189.56,-51899.51,27.1,0.000335693359375,322.147064208984,6.86554621871889,,0.996917188351318,49.1599999964237
1973-12-21T09:03:00.25Z,125312580.25,10B,43.0858293,44.2216831,322.15,0,4.5,34.3,706189.56,-51899.51,27.1,0.000335693359375,322.14697265625,6.84453781531545,,0.996917188351318,49.4099999964237
1973-12-21T09:03:00.5Z,125312580.5,10B,43.0858293,44.2216831,322.15,0,4.5,34.3,706189.56,-51899.51,27.1,0.000335693359375,322.146881103516,6.82352941191201,,0.996917188351318,49.6599999964237
1973-12-21T09:03:00.75Z,125312580.75,10B,43.0858293,44.2216831,322.15,0,4.5,34.3,706189.56,-51899.51,27.1,0.000335693359375,322.146789550781,6.80252100850857,,0.996917188351318,49.9099999964237
1973-12-21T09:03:01Z,125312581,10B,43.0858293,44.2216831,322.15,0,4.5,34.3,706189.56,-51899.51,27.1,0.000335693359375,322.146728515625,6.76857142887553,,0.996914086018769,50.1599999964237
1973-12-21T09:03:01.25Z,125312581.25,10B,43.0858293,44.2216831,322.15,0,4.5,34.3,706189.56,-51899.51,27.1,0.000335693359375,322.146636962891,6.73285714331329,,0.996917188351318,50.4099999964237
1973-12-21T09:03:01.5Z,125312581.5,10B,43.0858293,44.2216831,322.15,0,4.5,34.3,706189.56,-51899.51,27.1,0.000335693359375,322.146545410156,6.6882352966957,,0.996917188351318,50.6599999964237
1973-12-21T09:03:01.75Z,125312581.75,10B,43.0858293,44.2216831,322.15,0,4.5,34.3,706189.56,-51899.51,27.1,0.000335693359375,322.146453857422,6.52307692484036,,0.996917188351318,50.9099999964237
1973-12-21T09:03:02Z,125312582,10B,43.0858293,44.2216831,322.15,0,4.5,34.3,706189.56,-51899.51,27.1,0.0003662109375,322.146362304688,6.35333333532015,,0.996920290683868,51.1599999964237
1973-12-21T09:03:02.25Z,125312582.25,10B,43.0858293,44.2216831,322.15,0,4.5,34.3,706189.56,-51899.51,27.1,0.000335693359375,322.146301269531,6.17857142781116,,0.996917188351318,51.4099999964237
1973-12-21T09:03:02.5Z,125312582.5,10B,43.0858293,44.2216831,322.15,0,4.5,34.3,706189.56,-51899.51,27.1,0.000335693359375,322.146209716797,6,,0.996917188351318,51.6599999964237
1973-12-21T09:03:02.75Z,125312582.75,10B,43.0858293,44.2216831,322.15,0,4.5,34.3,706189.56,-51899.51,27.1,0.000335693359375,322.146118164062,5.81333333134649,,0.996917188351318,51.9099999964237
1973-12-21T09:03:03Z,125312583,10B,43.0858293,44.2216831,322.15,0,4.5,34.3,706189.56,-51899.51,27.1,0.000335693359375,322.146026611328,5.61666666459704,,0.996917188351318,52.1599999964237
1973-12-21T09:03:03.25Z,125312583.25,10B,43.0858293,44.2216831,322.15,0,4.5,34.3,706189.56,-51899.51,27.1,0.000335693359375,322.145965576172,5.43333333333332,,0.996917188351318,52.4099999964237
1973-12-21T09:03:03.5Z,125312583.5,10B,43.0858293,44.2216831,322.15,0,4.5,34.3,706189.56,-51899.51,27.1,0.000335693359375,322.145874023438,5.32499999534339,,0.996917188351318,52.6599999964237
1973-12-21T09:03:03.75Z,125312583.75,10B,43.0858293,44.2216831,322.15,0,4.5,34.3,706189.56,-51899.51,27.1,0.000335693359375,322.145782470703,5.5,,0.996917188351318,52.9099999964237
1973-12-21T09:03:04Z,125312584,10B,43.0858293,44.2216831,322.15,0,4.5,34.3,706189.56,-51899.51,27.1,0.000335693359375,322.145690917969,5.7,,0.996917188351318,53.1599999964237
1973-12-21T09:03:04.25Z,125312584.25,10B,43.0858293,44.2216831,322.15,0,4.5,34.3,706189.56,-51899.51,27.1,0.000335693359375,322.145629882812,5.88333333540294,,0.996917188351318,53.4099999964237
1973-12-21T09:03:04.5Z,125312584.5,10B,43.0858293,44.2216831,322.15,0,4.5,34.3,706189.56,-51899.51,27.1,0.000335693359375,322.145538330078,6.07142856686699,,0.996917188351318,53.6599999964237
1973-12-21T09:03:04.75Z,125312584.75,10B,43.0858293,44.2216831,322.15,0,4.5,34.3,706189.56,-51899.51,27.1,0.000335693359375,322.145446777344,6.24999999467816,,0.996917188351318,53.9099999964237
1973-12-21T09:03:05Z,125312585,10B,43.0858293,44.2216831,322.15,0,4.5,34.3,706189.56,-51899.51,27.1,0.000335693359375,322.145355224609,6.42857142248932,,0.996917188351318,54.1599999964237
1973-12-21T09:03:05.25Z,125312585.25,10B,43.0858293,44.2216831,322.15,0,4.5,34.3,706189.56,-51899.51,27.1,0.000335693359375,322.145294189453,6.6,,0.996917188351318,54.4099999964237
1973-12-21T09:03:05.5Z,125312585.5,10B,43.0858293,44.2216831,322.15,0,4.5,34.3,706189.56,-51899.51,27.1,0.000335693359375,322.145202636719,6.77142856686699,,0.996917188351318,54.6599999964237
1973-12-21T09:03:05.75Z,125312585.75,10B,43.0858293,44.2216831,322.15,0,4.5,34.3,706189.56,-51899.51,27.1,0.000335693359375,322.145111083984,6.70869565076547,,0.996917188351318,54.9099999964237
1973-12-21T09:03:06Z,125312586,10B,43.0858293,44.2216831,322.15,0,4.5,34.3,706189.56,-51899.51,27.1,0.000335693359375,322.14501953125,6.5,,0.996917188351318,55.1599999964237
1973-12-21T09:03:06.25Z,125312586.25,10B,43.0858293,44.2216831,322.14,0,4.5,34.3,706189.56,-51899.51,27.1,0.000335693359375,322.144958496094,6.3,,0.996917188351318,55.4099999964237
1973-12-21T09:03:06.5Z,125312586.5,10B,43.0858293,44.2216831,322.14,0,4.5,34.3,706189.56,-51899.51,27.1,0.000335693359375,322.144866943359,6.08333333747254,,0.996917188351318,55.6599999964237
1973-12-21T09:03:06.75Z,125312586.75,10B,43.0858293,44.2216831,322.14,0,4.5,34.3,706189.56,-51899.51,27.1,0.000335693359375,322.144775390625,5.87857142781116,,0.996917188351318,55.9099999964237
1973-12-21T09:03:07Z,125312587,10B,43.0858293,44.2216831,322.14,0,4.5,34.3,706189.56,-51899.51,27.1,0.000335693359375,322.144683837891,5.68571428875534,,0.996917188351318,56.1599999964237
1973-12-21T09:03:07.25Z,125312587.25,10B,43.0858293,44.2216831,322.14,0,4.5,34.3,706189.56,-51899.51,27.1,0.000335693359375,322.144622802734,5.51333333134649,,0.996917188351318,56.4099999964237
1973-12-21T09:03:07.5Z,125312587.5,10B,43.0858293,44.2216831,322.14,0,4.5,34.3,706189.56,-51899.51,27.1,0.000335693359375,322.14453125,5.32307692484036,,0.996917188351318,56.6599999964237
1973-12-21T09:03:07.75Z,125312587.75,10B,43.0858293,44.2216831,322.14,0,4.5,34.3,706189.56,-51899.51,27.1,0.000335693359375,322.144439697266,5.19672897229776,,0.996917188351318,56.9099999964237
1973-12-21T09:03:08Z,125312588,10B,43.0858293,44.2216831,322.14,0,4.5,34.3,706189.56,-51899.51,27.1,0.000335693359375,322.144348144531,5.18504672931036,,0.996917188351318,57.1599999964237
1973-12-21T09:03:08.25Z,125312588.25,10B,43.0858293,44.2216831,322.14,0,4.5,34.3,706189.56,-51899.51,27.1,0.000335693359375,322.144287109375,5.17336448632295,,0.996917188351318,57.4099999964237
1973-12-21T09:03:08.5Z,125312588.5,10B,43.0858293,44.2216831,322.14,0,4.5,34.3,706189.56,-51899.51,27.1,0.000335693359375,322.144195556641,5.16168224333555,,0.996917188351318,57.6599999964237
1973-12-21T09:03:08.75Z,125312588.75,10B,43.0858293,44.2216831,322.14,0,4.5,34.3,706189.56,-51899.51,27.1,0.000335693359375,322.144104003906,5.15000000034815,,0.996917188351318,57.9099999964237
1973-12-21T09:03:09Z,125312589,10B,43.0858293,44.2216831,322.14,0,4.5,34.3,706189.56,-51899.51,27.1,0.000335693359375,322.144012451172,5.13831775736074,,0.996917188351318,58.1599999964237
1973-12-21T09:03:09.25Z,125312589.25,10B,43.0858293,44.2216831,322.14,0,4.5,34.3,706189.56,-51899.51,27.1,0.000335693359375,322.143951416016,5.12663551437334,,0.996917188351318,58.4099999964237
1973-12-21T09:03:09.5Z,125312589.5,10B,43.0858293,44.2216831,322.14,0,4.5,34.3,706189.56,-51899.51,27.1,0.000335693359375,322.143859863281,5.11495327138594,,0.996917188351318,58.6599999964237
1973-12-21T09:03:09.75Z,125312589.75,10B,43.0858293,44.2216831,322.14,0,4.5,34.3,706189.56,-51899.51,27.1,0.000335693359375,322.143768310547,5.10327102839853,,0.996917188351318,58.9099999964237
1973-12-21T09:03:10Z,125312590,10B,43.0858293,44.2216831,322.14,0,4.5,34.3,706189.56,-51899.51,27.1,0.000335693359375,322.143676757812,5.19668508274557,,0.996917188351318,59.1599999964237
1973-12-21T09:03:10.25Z,125312590.25,10B,43.0858293,44.2216831,322.14,0,4.5,34.3,706189.56,-51899.51,27.1,0.000335693359375,322.143615722656,5.18287292806763,,0.996917188351318,59.4099999964237
1973-12-21T09:03:10.5Z,125312590.5,10B,43.0858293,44.2216831,322.14,0,4.5,34.3,706189.56,-51899.51,27.1,0.000335693359375,322.143524169922,5.16906077338969,,0.996917188351318,59.6599999964237
1973-12-21T09:03:10.75Z,125312590.75,10B,43.0858293,44.2216831,322.14,0,4.5,34.3,706189.56,-51899.51,27.1,0.000335693359375,322.143432617188,5.15524861871175,,0.996917188351318,59.9099999964237
1973-12-21T09:03:11Z,125312591,10B,43.0858293,44.2216831,322.14,0,4.5,34.3,706189.56,-51899.51,27.1,0.000335693359375,322.143341064453,5.1414364640338,,0.996917188351318,60.1599999964237
1973-12-21T09:03:11.25Z,125312591.25,10B,43.0858293,44.2216831,322.14,0,4.5,34.3,706189.56,-51899.51,27.1,0.000335693359375,322.143280029297,5.12762430935586,,0.996917188351318,60.4099999964237
1973-12-21T09:03:11.5Z,125312591.5,10B,43.0858293,44.2216831,322.14,0,4.5,34.3,706189.56,-51899.51,27.1,0.000335693359375,322.143188476562,5.11381215467792,,0.996917188351318,60.6599999964237
1973-12-21T09:03:11.75Z,125312591.75,10B,43.0858293,44.2216831,322.14,0,4.5,34.3,706189.56,-51899.51,27.1,0.000335693359375,322.143096923828,5.1,,0.996917188351318,60.9099999964237
1973-12-21T09:03:12Z,125312592,10B,43.0858293,44.2216831,322.14,0,4.5,34.3,706189.56,-51899.51,27.1,0.000335693359375,322.143005371094,5.15813953391664,,0.996917188351318,61.1599999964237
1973-12-21T09:03:12.25Z,125312592.25,10B,43.0858293,44.2216831,322.14,0,4.5,34.3,706189.56,-51899.51,27.1,0.000335693359375,322.142944335938,5.22916666433836,,0.996917188351318,61.4099999964237
1973-12-21T09:03:12.5Z,125312592.5,10B,43.0858293,44.2216831,322.14,0,4.5,34.3,706189.56,-51899.51,27.1,0.000335693359375,322.142852783203,5.33999999850988,,0.996917188351318,61.6599999964237
1973-12-21T09:03:12.75Z,125312592.75,10B,43.0858293,44.2216831,322.14,0,4.5,34.3,706189.56,-51899.51,27.1,0.000335693359375,322.142761230469,5.47222222268213,,0.996917188351318,61.9099999964237
1973-12-21T09:03:13Z,125312593,10B,43.0858293,44.2216831,322.14,0,4.5,34.3,706189.56,-51899.51,27.1,0.000335693359375,322.142669677734,5.62,,0.996917188351318,62.1599999964237
1973-12-21T09:03:13.25Z,125312593.25,10B,43.0858293,44.2216831,322.14,0,4.5,34.3,706189.56,-51899.51,27.1,0.000335693359375,322.142608642578,5.78666666865349,,0.996917188351318,62.4099999964237
1973-12-21T09:03:13.5Z,125312593.5,10B,43.0858293,44.2216831,322.14,0,4.5,34.3,706189.56,-51899.51,27.1,0.000335693359375,322.142517089844,5.95882352528688,,0.996917188351318,62.6599999964237
1973-12-21T09:03:13.75Z,125312593.75,10B,43.0858293,44.2216831,322.14,0,4.5,34.3,706189.56,-51899.51,27.1,0.000335693359375,322.142425537109,6.11666666666667,,0.996917188351318,62.9099999964237
1973-12-21T09:03:14Z,125312594,10B,43.0858293,44.2216831,322.14,0,4.5,34.3,706189.56,-51899.51,27.1,0.000335693359375,322.142333984375,6.25555555463573,,0.996917188351318,63.1599999964237
1973-12-21T09:03:14.25Z,125312594.25,10B,43.0858293,44.2216831,322.14,0,4.5,34.3,706189.56,-51899.51,27.1,0.000335693359375,322.142272949219,6.2005681812794,,0.996917188351318,63.4099999964237
1973-12-21T09:03:14.5Z,125312594.5,10B,43.0858293,44.2216831,322.14,0,4.5,34.3,706189.56,-51899.51,27.1,0.000335693359375,322.142181396484,6.21477272681091,,0.996917188351318,63.6599999964237
1973-12-21T09:03:14.75Z,125312594.75,10B,43.0858293,44.2216831,322.14,0,4.5,34.3,706189.56,-51899.51,27.1,0.000335693359375,322.14208984375,6.22897727234243,,0.996917188351318,63.9099999964237
1973-12-21T09:03:15Z,125312595,10B,43.0858293,44.2216831,322.14,0,4.5,34.3,706189.56,-51899.51,27.1,0.000335693359375,322.141998291016,6.24318181787394,,0.996917188351318,64.1599999964237
1973-12-21T09:03:15.25Z,125312595.25,10B,43.0858293,44.2216831,322.14,0,4.5,34.3,706189.56,-51899.51,27.1,0.000335693359375,322.141937255859,6.25738636340546,,0.996917188351318,64.4099999964237
1973-12-21T09:03:15.5Z,125312595.5,10B,43.0858293,44.2216831,322.14,0,4.5,34.3,706189.56,-51899.51,27.1,0.000335693359375,322.141845703125,6.27159090893697,,0.996917188351318,64.6599999964237
1973-12-21T09:03:15.75Z,125312595.75,10B,43.0858293,44.2216831,322.14,0,4.5,34.3,706189.56,-51899.51,27.1,0.000335693359375,322.141754150391,6.28579545446849,,0.996917188351318,64.9099999964237
1973-12-21T09:03:16Z,125312596,10B,43.0858293,44.2216831,322.14,0,4.5,34.3,706189.56,-51899.51,27.1,0.000335693359375,322.141662597656,6.3,,0.996917188351318,65.1599999964237
1973-12-21T09:03:16.25Z,125312596.25,10B,43.0858293,44.2216831,322.14,0,4.5,34.3,706189.56,-51899.51,27.1,0.000335693359375,322.1416015625,18.2909090859831,,0.996917188351318,65.4099999964237
1973-12-21T09:03:16.5Z,125312596.5,10B,43.0858293,44.2216831,322.14,0,4.5,34.3,706189.56,-51899.51,27.1,0.000335693359375,322.141510009766,19,,0.996917188351318,65.6599999964237
1973-12-21T09:03:16.75Z,125312596.75,10B,43.0858293,44.2216831,322.14,0,4.5,34.3,706189.56,-51899.51,27.1,0.000335693359375,322.141418457031,19.8090909140169,,0.996917188351318,65.9099999964237
1973-12-21T09:03:17Z,125312597,10B,43.0858293,44.2216831,322.14,0,4.5,34.3,706189.56,-51899.51,27.1,0.000335693359375,322.141326904297,20.6636363710254,,0.996917188351318,66.1599999964237
1973-12-21T09:03:17.25Z,125312597.25,10B,43.0858293,44.2216831,322.14,0,4.5,34.3,706189.56,-51899.51,27.1,0.000335693359375,322.141265869141,21.6090909275634,,0.996917188351318,66.4099999964237
1973-12-21T09:03:17.5Z,125312597.5,10B,43.0858293,44.2216831,322.14,0,4.5,34.3,706189.56,-51899.51,27.1,0.000335693359375,322.141174316406,22.745454502352,,0.996917188351318,66.6599999964237
1973-12-21T09:03:17.75Z,125312597.75,10B,43.0858293,44.2216831,322.14,0,4.5,34.3,706189.56,-51899.51,27.1,0.000335693359375,322.141082763672,23.9181817738478,,0.996917188351318,66.9099999964237
1973-12-21T09:03:18Z,125312598,10B,43.0858293,44.2216831,322.14,0,4.5,34.3,706189.56,-51899.51,27.1,0.000335693359375,322.140991210938,25.2818181448732,,0.996917188351318,67.1599999964237
1973-12-21T09:03:18.25Z,125312598.25,10B,43.0858293,44.2216831,322.14,0,4.5,34.3,706189.56,-51899.51,27.1,0.000335693359375,322.140930175781,26.7727272985888,,0.996914086018769,67.4099999964237
1973-12-21T09:03:18.5Z,125312598.5,10B,43.0858293,44.2216831,322.14,0,4.5,34.3,706189.56,-51899.51,27.1,0.000335693359375,322.140838623047,28.5818181042336,,0.996917188351318,67.6599999964237
1973-12-21T09:03:18.75Z,125312598.75,10B,43.0858293,44.2216831,322.14,0,4.5,34.3,706189.56,-51899.51,27.1,0.000335693359375,322.140747070312,30.5636362897463,,0.996917188351318,67.9099999964237
1973-12-21T09:03:19Z,125312599,10B,43.0858293,44.2216831,322.14,0,4.5,34.3,706189.56,-51899.51,27.1,0.000335693359375,322.140655517578,32.8999999875824,,0.996917188351318,68.1599999964237
1973-12-21T09:03:19.25Z,125312599.25,10B,43.0858293,44.2216831,322.14,0,4.5,34.3,706189.56,-51899.51,27.1,0.0003662109375,322.140563964844,35.7272727826903,,0.996920290683868,68.4099999964237
1973-12-21T09:03:19.5Z,125312599.5,10B,43.0858293,44.2216831,322.14,0,4.5,34.3,706189.56,-51899.51,27.1,0.000335693359375,322.140502929688,39.2727271089377,,0.996917188351318,68.6599999964237
1973-12-21T09:03:19.75Z,125312599.75,10B,43.0858293,44.2216831,322.14,0,4.5,34.3,706189.56,-51899.51,27.1,0.000335693359375,322.140411376953,43.6727270953911,,0.996917188351318,68.9099999964237
1973-12-21T09:03:20Z,125312600,10B,43.0858293,44.2216831,322.14,0,4.5,34.3,706189.56,-51899.51,27.1,0.000335693359375,322.140319824219,49.3090907243658,,0.996917188351318,69.1599999964237
1973-12-21T09:03:20.25Z,125312600.25,10B,43.0858293,44.2216831,322.14,0,4.5,34.3,706189.56,-51899.51,27.1,0.000335693359375,322.140228271484,56.309091049482,,0.996843031623272,69.4099999964237
1973-12-21T09:03:20.5Z,125312600.5,10B,43.0858293,44.2216831,322.14,0,4.5,34.3,706189.56,-51899.51,27.1,0.000335693359375,322.140167236328,66.1181813268129,,0.99767415749331,69.6599999964237
1973-12-21T09:03:20.75Z,125312600.75,10B,43.0858293,44.2216831,322.14,0,4.5,34.3,706189.56,-51899.51,27.1,0.000335693359375,322.140075683594,79.9181812048944,,0.996942007011711,69.9099999964237
1973-12-21T09:03:21Z,125312601,10B,43.0858293,44.2216831,322.14,0,4.5,34.3,706189.56,-51899.51,27.1,0.000335693359375,322.139984130859,106.454544278462,,0.996951314009359,70.1599999964237
1973-12-21T09:03:21.25Z,125312601.25,10B,43.0858293,44.2216831,322.14,0.1,4.4,34.3,706189.56,-51899.5,27.1,0.0117212928556229,322.139984130859,-115.44545874241,,0.998072608789813,70.4099999964237
1973-12-21T09:03:21.5Z,125312601.5,10B,43.0858293,44.2216831,322.15,0.1,4.6,34.3,706189.56,-51899.51,27.1,0.007110595703125,322.147277832031,-75.3818184699894,,0.996292378795409,70.6599999964237
1973-12-21T09:03:21.75Z,125312601.75,10B,43.0858293,44.2216831,322.14,0.1,4.6,34.3,706189.56,-51899.51,27.1,9.1552734375e-05,322.139984130859,-59.309091076575,,0.997759041080511,70.9099999964237
1973-12-21T09:03:22Z,125312602,10B,43.0858293,44.2216831,322.14,0.1,4.5,34.3,706189.56,-51899.51,27.1,0,322.139984130859,-46.8181818686734,,0.997902121293308,71.1599999964237
1973-12-21T09:03:22.25Z,125312602.25,10B,43.0858293,44.2216831,322.15,0,4.5,34.3,706189.56,-51899.51,27.1,0.014290570813011,322.148162841797,-38.6818183345243,,0.995884410865586,71.4099999964237
1973-12-21T09:03:22.5Z,125312602.5,10B,43.0858293,44.2216831,322.15,0,4.5,34.3,706189.56,-51899.51,27.1,0.002716064453125,322.149993896484,-32.0909091943552,,0.996032195311542,71.6599999964237
1973-12-21T09:03:22.75Z,125312602.75,10B,43.0858293,44.2216831,322.15,0,4.6,34.3,706189.56,-51899.51,27.1,0.010009765625,322.149993896484,-26.5363636831607,,0.994885343127801,71.9099999964237
1973-12-21T09:03:23Z,125312603,10B,43.0858293,44.2216831,322.15,0,4.5,34.3,706189.56,-51899.51,27.1,0.010009765625,322.149993896484,-22.5090909275634,,0.995787939303429,72.1599999964237
1973-12-21T09:03:23.25Z,125312603.25,10B,43.0858293,44.2216831,322.15,0,4.5,34.3,706189.56,-51899.51,27.1,0.00115966796875,322.147003173828,-19.309090968203,,0.997339105578002,72.4099999964237
1973-12-21T09:03:23.5Z,125312603.5,10B,43.0858293,44.2216831,322.14,0,4.5,34.3,706189.56,-51899.51,27.1,0.005950927734375,322.14404296875,-16.5181818551268,,0.998127098045486,72.6599999964237
1973-12-21T09:03:23.75Z,125312603.75,10B,43.0858293,44.2216831,322.14,0,4.5,34.3,706189.56,-51899.51,27.1,0.008941650390625,322.141052246094,-14.2363636560676,,0.998735155225118,72.9099999964237
1973-12-21T09:03:24Z,125312604,10B,43.0858293,44.2216831,322.15,0,4.5,34.3,706189.56,-51899.51,27.1,0.0010986328125,322.148895263672,-12.5181818280338,,0.997140556294857,73.1599999964237
1973-12-21T09:03:24.25Z,125312604.25,10B,43.0858293,44.2216831,322.15,0,4.5,34.3,706189.56,-51899.51,27.1,0.00299072265625,322.149993896484,-10.8583333623078,,0.996613159761502,73.4099999964237
1973-12-21T09:03:24.5Z,125312604.5,10B,43.0858293,44.2216831,322.15,0,4.5,34.3,706189.56,-51899.51,27.1,0.005950927734375,322.149993896484,-9.50909092756342,,0.996312233504235,73.6599999964237
1973-12-21T09:03:24.75Z,125312604.75,10B,43.0858293,44.2216831,322.15,0,4.5,34.3,706189.56,-51899.51,27.1,0.008941650390625,322.149993896484,-8.3181818280338,,0.996008204914418,73.9099999964237
1973-12-21T09:03:25Z,125312605,10B,43.0858293,44.2216831,322.15,0,4.5,34.3,706189.56,-51899.51,27.1,0.0010986328125,322.149993896484,-7.40909091401693,,0.996805504379549,74.1599999964237
1973-12-21T09:03:25.25Z,125312605.25,10B,43.0858293,44.2216831,322.15,0,4.5,34.3,706189.56,-51899.51,27.1,0,322.149993896484,-6.6,,0.996917188351318,74.4099999964237
1973-12-21T09:03:25.5Z,125312605.5,10B,43.0858293,44.2216831,322.15,0,4.5,34.3,706189.56,-51899.51,27.1,0,322.149993896484,-5.9181818144873,,0.996917188351318,74.6599999964237
1973-12-21T09:03:25.75Z,125312605.75,10B,43.0858293,44.2216831,322.15,0,4.5,34.3,706189.56,-51899.51,27.1,0,322.149993896484,1.25454575503168,,0.996917188351318,74.9099999964237
1973-12-21T09:03:26Z,125312606,10B,43.0858293,44.2216831,322.15,0,4.5,34.3,706189.56,-51899.51,27.1,0,322.149993896484,6.68823529618009,,0.996917188351318,75.1599999964237
1973-12-21T09:03:26.25Z,125312606.25,10B,43.0858293,44.2216831,322.15,0,4.5,34.3,706189.56,-51899.51,27.1,0,322.149993896484,6.61470588196621,,0.996917188351318,75.4099999964237
1973-12-21T09:03:26.5Z,125312606.5,10B,43.0858293,44.2216831,322.15,0,4.5,34.3,706189.56,-51899.51,27.1,0,322.149993896484,6.5545454551612,,0.996889367109421,75.6599999964237
1973-12-21T09:03:26.75Z,125312606.75,10B,43.0858293,44.2216831,322.15,0,4.5,34.3,706189.56,-51899.51,27.1,0,322.149993896484,6.4954545497648,,0.996889367109421,75.9099999964237
1973-12-21T09:03:27Z,125312607,10B,43.0858293,44.2216831,322.15,0,4.5,34.3,706189.56,-51899.51,27.1,0,322.149993896484,6.36666667080587,,0.996889367109421,76.1599999964237
1973-12-21T09:03:27.25Z,125312607.25,10B,43.0858293,44.2216831,322.15,0,4.5,34.3,706189.56,-51899.51,27.1,0,322.149993896484,6.15454545700845,,0.996889367109421,76.4099999964237
1973-12-21T09:03:27.5Z,125312607.5,10B,43.0858293,44.2216831,322.15,0,4.5,34.3,706189.56,-51899.51,27.1,0.00390625,322.149993896484,5.94166666770146,,0.996945009593216,76.6599999964237
1973-12-21T09:03:27.75Z,125312607.75,10B,43.0858293,44.2216831,322.15,0,4.5,34.3,706189.56,-51899.51,27.1,0.00390625,322.149993896484,5.72727272850421,,0.996945009593216,76.9099999964237
1973-12-21T09:03:28Z,125312608,10B,43.0858293,44.2216831,322.15,0,4.5,34.3,706189.56,-51899.51,27.1,0.00390625,322.149993896484,5.5,,0.996945009593216,77.1599999964237
1973-12-21T09:03:28.25Z,125312608.25,10B,43.0858293,44.2216831,322.15,0,4.5,34.3,706189.56,-51899.51,27.1,0.00390625,322.149993896484,5.26363637102537,,0.996945009593216,77.4099999964237
1973-12-21T09:03:28.5Z,125312608.5,10B,43.0858293,44.2216831,322.15,0,4.5,34.3,706189.56,-51899.51,27.1,0,322.149993896484,4.95454545700845,,0.996917188351318,77.6599999964237
1973-12-21T09:03:28.75Z,125312608.75,10B,43.0858293,44.2216831,322.15,0,4.5,34.3,706189.56,-51899.51,27.1,0,322.149993896484,4.72727272850421,,0.996917188351318,77.9099999964237
1973-12-21T09:03:29Z,125312609,10B,43.0858293,44.2216831,322.15,0,4.5,34.3,706189.56,-51899.51,27.1,0,322.149993896484,4.4,,0.996917188351318,78.1599999964237
1973-12-21T09:03:29.25Z,125312609.25,10B,43.0858293,44.2216831,322.15,0,4.5,34.3,706189.56,-51899.51,27.1,0,322.149993896484,4.35689655159124,,0.996917188351318,78.4099999964237
1973-12-21T09:03:29.5Z,125312609.5,10B,43.0858293,44.2216831,322.15,0,4.5,34.3,706189.56,-51899.51,27.1,0,322.149993896484,4.31379310318248,,0.996917188351318,78.6599999964237
1973-12-21T09:03:29.75Z,125312609.75,10B,43.0858293,44.2216831,322.15,0,4.5,34.3,706189.56,-51899.51,27.1,0,322.149993896484,4.28617886169012,,0.996917188351318,78.9099999964237
1973-12-21T09:03:30Z,125312610,10B,43.0858293,44.2216831,322.15,0,4.5,34.3,706189.56,-51899.51,27.1,0,322.149993896484,4.26585365850703,,0.996917188351318,79.1599999964237
1973-12-21T09:03:30.25Z,125312610.25,10B,43.0858293,44.2216831,322.15,0,4.5,34.3,706189.56,-51899.51,27.1,0,322.149993896484,4.24552845532394,,0.996917188351318,79.4099999964237
1973-12-21T09:03:30.5Z,125312610.5,10B,43.0858293,44.2216831,322.15,0,4.5,34.3,706189.56,-51899.51,27.1,0,322.149993896484,4.22520325214085,,0.996917188351318,79.6599999964237
1973-12-21T09:03:30.75Z,125312610.75,10B,43.0858293,44.2216831,322.15,0,4.5,34.3,706189.56,-51899.51,27.1,0,322.149993896484,4.20487804895776,,0.996917188351318,79.9099999964237
1973-12-21T09:03:31Z,125312611,10B,43.0858293,44.2216831,322.15,0,4.5,34.3,706189.56,-51899.51,27.1,0,322.149993896484,4.15128205196783,,0.996917188351318,80.1599999964237
1973-12-21T09:03:31.25Z,125312611.25,10B,43.0858293,44.2216831,322.15,0,4.5,34.3,706189.56,-51899.51,27.1,0,322.149993896484,4.07222222268213,,0.996917188351318,80.4099999964237
1973-12-21T09:03:31.5Z,125312611.5,10B,43.0858293,44.2216831,322.15,0,4.5,34.3,706189.56,-51899.51,27.1,0,322.149993896484,3.92500000232829,,0.996917188351318,80.6599999964237
1973-12-21T09:03:31.75Z,125312611.75,10B,43.0858293,44.2216831,322.15,0,4.5,34.3,706189.56,-51899.51,27.1,0,322.149993896484,3.76875000116415,,0.996917188351318,80.9099999964237
1973-12-21T09:03:32Z,125312612,10B,43.0858293,44.2216831,322.15,0,4.5,34.3,706189.56,-51899.51,27.1,0,322.149993896484,3.60666666997801,,0.996917188351318,81.1599999964237
1973-12-21T09:03:32.25Z,125312612.25,10B,43.0858293,44.2216831,322.15,0,4.5,34.3,706189.56,-51899.51,27.1,0,322.149993896484,3.45999999999999,,0.996917188351318,81.4099999964237
1973-12-21T09:03:32.5Z,125312612.5,10B,43.0858293,44.2216831,322.15,0,4.5,34.3,706189.56,-51899.51,27.1,0,322.149993896484,3.2882352966957,,0.996917188351318,81.6599999964237
1973-12-21T09:03:32.75Z,125312612.75,10B,43.0858293,44.2216831,322.15,0,4.5,34.3,706189.56,-51899.51,27.1,0,322.149993896484,3.12307692484036,,0.996917188351318,81.9099999964237
1973-12-21T09:03:33Z,125312613,10B,43.0858293,44.2216831,322.15,0,4.5,34.3,706189.56,-51899.51,27.1,0,322.149993896484,2.94285714437766,,0.996917188351318,82.1599999964237
