ISO time,Unix time,Id,Longitude,Latitude,Altitude,Roll,Pitch,Yaw,U,V,Heading,TAS,ASL,AOA,AOS,G,LonG,Relative Time
1973-12-21T09:24:05.25Z,125313845.25,20D,43.0883438,44.220531,322.06,0,1.5,34.2,706406.38,-52002.59,27.1,0,322.059997558594,,,,,0.109999999403954
1973-12-21T09:24:05.5Z,125313845.5,20D,43.0883439,44.2205311,322.05,0,1.4,34.2,706406.38,-52002.58,27.1,0.0294012596727468,322.052856445312,,,,,0.359999999403954
1973-12-21T09:24:05.75Z,125313845.75,20D,43.0883439,44.2205311,322.04,0,1.2,34.2,706406.38,-52002.57,27.1,0.0447534260661721,322.040924072266,,,,,0.609999999403954
1973-12-21T09:24:06Z,125313846,20D,43.0883439,44.2205311,322.04,0,1.1,34.2,706406.38,-52002.57,27.1,0.0325218102778537,322.039978027344,,,,,0.859999999403954
1973-12-21T09:24:06.25Z,125313846.25,20D,43.0883439,44.2205311,322.04,0,1.1,34.2,706406.38,-52002.58,27.1,0.0231972139066791,322.039978027344,,,1.00204370734743,0.01711205587551,1.10999999940395
1973-12-21T09:24:06.5Z,125313846.5,20D,43.0883439,44.2205311,322.04,0,1.1,34.2,706406.38,-52002.58,27.1,0.0134578021400347,322.039978027344,,,1.00216951914611,0.0181784537893166,1.35999999940395
1973-12-21T09:24:06.75Z,125313846.75,20D,43.0883439,44.220531,322.04,0,1.1,34.2,706406.38,-52002.58,27.1,0.00786957160487186,322.039978027344,,,1.00091894417725,0.0199277454874629,1.60999999940395
1973-12-21T09:24:07Z,125313847,20D,43.0883438,44.220531,322.04,0,1.1,34.2,706406.38,-52002.59,27.1,0.01953125,322.039978027344,,,1.00050473840344,0.0220477568707841,1.85999999940395
1973-12-21T09:24:07.25Z,125313847.25,20D,43.0883438,44.220531,322.04,0,1.2,34.2,706406.38,-52002.59,27.1,0.0118062014691359,322.041412353516,,,0.999499524374047,0.0230647399651344,2.10999999940395
1973-12-21T09:24:07.5Z,125313847.5,20D,43.0883438,44.220531,322.05,0,1.2,34.2,706406.38,-52002.59,27.1,0.0126976597890096,322.049987792969,,,0.997709855684327,0.0223179051220457,2.35999999940395
1973-12-21T09:24:07.75Z,125313847.75,20D,43.0883438,44.220531,322.05,0,1.2,34.2,706406.38,-52002.58,27.1,0.010009765625,322.049987792969,,,0.997739560260343,0.020899834711588,2.60999999940395
1973-12-21T09:24:08Z,125313848,20D,43.0883438,44.2205311,322.05,0,1.2,34.2,706406.38,-52002.58,27.1,0.0138031582743628,322.047271728516,,,0.998315639957933,0.0198478824822603,2.85999999940395
1973-12-21T09:24:08.25Z,125313848.25,20D,43.0883438,44.2205311,322.04,0,1.2,34.2,706406.38,-52002.58,27.1,0.0117521208233983,322.04052734375,,,0.999837037816742,0.0198797514872834,3.10999999940395
1973-12-21T09:24:08.5Z,125313848.5,20D,43.0883438,44.2205311,322.04,0,1.2,34.2,706406.38,-52002.58,27.1,0.0126976597890096,322.039978027344,,,1.00081829828119,0.0201370873798503,3.35999999940395
1973-12-21T09:24:08.75Z,125313848.75,20D,43.0883438,44.2205311,322.04,0,1.2,34.2,706406.38,-52002.58,27.1,0.010009765625,322.039978027344,,,1.00080621447515,0.0207180375468725,3.60999999940395
1973-12-21T09:24:09Z,125313849,20D,43.0883438,44.2205311,322.04,0,1.2,34.2,706406.38,-52002.58,27.1,0.007293701171875,322.039978027344,,,1.00053193689547,0.0205842519961464,3.85999999940395
1973-12-21T09:24:09.25Z,125313849.25,20D,43.0883438,44.2205311,322.04,0,1.2,34.2,706406.38,-52002.58,27.1,0.00054931640625,322.039978027344,,,0.999846969488254,0.0204421425517834,4.10999999940395
1973-12-21T09:24:09.5Z,125313849.5,20D,43.0883438,44.2205311,322.04,0,1.2,34.2,706406.38,-52002.58,27.1,0,322.039978027344,,,0.999793529522801,0.0203130412846804,4.35999999940395
1973-12-21T09:24:09.75Z,125313849.75,20D,43.0883438,44.2205311,322.04,0,1.2,34.2,706406.38,-52002.58,27.1,0,322.039978027344,,,0.999796152127015,0.0201850831508636,4.60999999940395
1973-12-21T09:24:10Z,125313850,20D,43.0883438,44.2205311,322.04,0,1.1,34.2,706406.38,-52002.58,27.1,0,322.039978027344,,,0.999798774731229,0.0200571250170469,4.85999999940395
1973-12-21T09:24:10.25Z,125313850.25,20D,43.0883438,44.2205311,322.04,0,1.1,34.2,706406.38,-52002.58,27.1,0,322.039978027344,,,0.99980127812616,0.0199291668832302,5.10999999940395
1973-12-21T09:24:10.5Z,125313850.5,20D,43.0883438,44.2205311,322.04,0,1.1,34.2,706406.38,-52002.58,27.1,0,322.039978027344,,,0.999803841125733,0.0198012068867683,5.35999999940395
1973-12-21T09:24:10.75Z,125313850.75,20D,43.0883438,44.2205311,322.04,0,1.1,34.2,706406.38,-52002.58,27.1,0,322.039978027344,,,0.999806284916023,0.0196732487529516,5.60999999940395
1973-12-21T09:24:11Z,125313851,20D,43.0883438,44.2205311,322.04,0,1.1,34.2,706406.38,-52002.58,27.1,0,322.039978027344,,,0.999808907520237,0.0195452906191349,5.85999999940395
1973-12-21T09:24:11.25Z,125313851.25,20D,43.0883438,44.2205311,322.04,0,1.1,34.2,706406.38,-52002.58,27.1,0,322.039978027344,,,0.999811351310527,0.019417330622673,6.10999999940395
1973-12-21T09:24:11.5Z,125313851.5,20D,43.0883438,44.2205311,322.04,0,1.1,34.2,706406.38,-52002.58,27.1,0,322.039978027344,,,0.999813854705458,0.0192893706262112,6.35999999940395
1973-12-21T09:24:11.75Z,125313851.75,20D,43.0883438,44.2205311,322.04,0,1.1,34.2,706406.38,-52002.58,27.1,0,322.039978027344,,,0.999804258358221,0.0197790283709764,6.60999999940395
1973-12-21T09:24:12Z,125313852,20D,43.0883438,44.2205311,322.04,0,1.1,34.2,706406.38,-52002.58,27.1,0,322.039978027344,,,0.999799311173,0.0200283639132977,6.85999999940395
1973-12-21T09:24:12.25Z,125313852.25,20D,43.0883438,44.2205311,322.04,0,1.1,34.2,706406.38,-52002.58,27.1,0,322.039978027344,,,0.99980908633416,0.0195328872650862,7.10999999940395
1973-12-21T09:24:12.5Z,125313852.5,20D,43.0883438,44.2205311,322.04,0,1.2,34.2,706406.38,-52002.58,27.1,0,322.039978027344,,,0.999797999870893,0.0200922973453999,7.35999999940395
1973-12-21T09:24:12.75Z,125313852.75,20D,43.0883438,44.2205311,322.04,0,1.2,34.2,706406.38,-52002.58,27.1,0,322.039978027344,,,0.99978667498906,0.0206516999751329,7.60999999940395
1973-12-21T09:24:13Z,125313853,20D,43.0883438,44.2205311,322.04,0,1.2,34.2,706406.38,-52002.58,27.1,0,322.039978027344,,,0.999787569058679,0.020604781806469,7.85999999940395
1973-12-21T09:24:13.25Z,125313853.25,20D,43.0883438,44.2205311,322.04,0,1.1,34.2,706406.38,-52002.58,27.1,0,322.039978027344,,,0.999801814567931,0.0199010167270899,8.10999999940395
1973-12-21T09:24:13.5Z,125313853.5,20D,43.0883438,44.2205311,322.04,0,1.1,34.2,706406.38,-52002.58,27.1,0,322.039978027344,,,0.999815583240054,0.0191972386091948,8.35999999940395
1973-12-21T09:24:13.75Z,125313853.75,20D,43.0883438,44.2205311,322.04,0,1.2,34.2,706406.38,-52002.58,27.1,0,322.039978027344,,,0.999795138848114,0.0202361438423395,8.60999999940395
1973-12-21T09:24:14Z,125313854,20D,43.0883438,44.2205311,322.04,0,1.2,34.2,706406.38,-52002.58,27.1,0,322.039978027344,,,0.999781191362068,0.0209114216268063,8.85999999940395
1973-12-21T09:24:14.25Z,125313854.25,20D,43.0883438,44.2205311,322.04,0,1.2,34.2,706406.38,-52002.58,27.1,0,322.039978027344,,,0.999783277524511,0.0208140257745981,9.10999999940395
1973-12-21T09:24:14.5Z,125313854.5,20D,43.0883438,44.2205311,322.04,0,1.2,34.2,706406.38,-52002.58,27.1,0,322.039978027344,,,0.999785244477671,0.02071662992239,9.35999999940395
1973-12-21T09:24:14.75Z,125313854.75,20D,43.0883438,44.2205311,322.04,0,1.2,34.2,706406.38,-52002.58,27.1,0,322.039978027344,,,0.999787330640114,0.0206192340701818,9.60999999940395
1973-12-21T09:24:15Z,125313855,20D,43.0883438,44.2205311,322.04,0,1.2,34.2,706406.38,-52002.58,27.1,0,322.039978027344,,,0.999789297593274,0.0205218400806189,9.85999999940395
1973-12-21T09:24:15.25Z,125313855.25,20D,43.0883438,44.2205311,322.04,0,1.2,34.2,706406.38,-52002.58,27.1,0,322.039978027344,,,0.999791324151076,0.0204244423657656,10.109999999404
1973-12-21T09:24:15.5Z,125313855.5,20D,43.0883438,44.2205311,322.04,0,1.2,34.2,706406.38,-52002.58,27.1,0,322.039978027344,,,0.999793291104236,0.0203270465135574,10.359999999404
1973-12-21T09:24:15.75Z,125313855.75,20D,43.0883438,44.2205311,322.04,0,1.2,34.2,706406.38,-52002.58,27.1,0,322.039978027344,,,0.999795258057397,0.0202296506613493,10.609999999404
1973-12-21T09:24:16Z,125313856,20D,43.0883438,44.2205311,322.04,0,1.2,34.2,706406.38,-52002.58,27.1,0,322.039978027344,,,0.999797225010557,0.0201322548091412,10.859999999404
1973-12-21T09:24:16.25Z,125313856.25,20D,43.0883438,44.2205311,322.04,0,1.1,34.2,706406.38,-52002.58,27.1,0,322.039978027344,,,0.999799191963717,0.0200348570942879,11.109999999404
1973-12-21T09:24:16.5Z,125313856.5,20D,43.0883438,44.2205311,322.04,0,1.1,34.2,706406.38,-52002.58,27.1,0,322.039978027344,,,0.999801158916877,0.0199374612420797,11.359999999404
1973-12-21T09:24:16.75Z,125313856.75,20D,43.0883438,44.2205311,322.04,0,1.1,34.2,706406.38,-52002.58,27.1,0,322.039978027344,,,0.999803066265397,0.0198400635272264,11.609999999404
1973-12-21T09:24:17Z,125313857,20D,43.0883438,44.2205311,322.04,0,1.1,34.2,706406.38,-52002.58,27.1,0,322.039978027344,,,0.999804973613916,0.0197426658123732,11.859999999404
1973-12-21T09:24:17.25Z,125313857.25,20D,43.0883438,44.2205311,322.04,0,1.1,34.2,706406.38,-52002.58,27.1,0,322.039978027344,,,0.999806880962435,0.0196452680975199,12.109999999404
1973-12-21T09:24:17.5Z,125313857.5,20D,43.0883438,44.2205311,322.04,0,1.1,34.2,706406.38,-52002.58,27.1,0,322.039978027344,,,0.999808847915595,0.0195478722453117,12.359999999404
1973-12-21T09:24:17.75Z,125313857.75,20D,43.0883438,44.2205311,322.04,0,1.1,34.2,706406.38,-52002.58,27.1,0,322.039978027344,,,0.999810695659473,0.0194504726678133,12.609999999404
1973-12-21T09:24:18Z,125313858,20D,43.0883438,44.2205311,322.04,0,1.1,34.2,706406.38,-52002.58,27.1,0,322.039978027344,,,0.999812603007992,0.01935307495296,12.859999999404
1973-12-21T09:24:18.25Z,125313858.25,20D,43.0883438,44.2205311,322.04,0,1.1,34.2,706406.38,-52002.58,27.1,0,322.039978027344,,,0.999814510356511,0.0192556772381067,13.109999999404
1973-12-21T09:24:18.5Z,125313858.5,20D,43.0883438,44.2205311,322.04,0,1.1,34.2,706406.38,-52002.58,27.1,0,322.039978027344,,,0.999814987193641,0.0192286297678947,13.359999999404
1973-12-21T09:24:18.75Z,125313858.75,20D,43.0883438,44.2205311,322.04,0,1.1,34.2,706406.38,-52002.58,27.1,0,322.039978027344,,,0.999813497077611,0.0193071085959673,13.609999999404
1973-12-21T09:24:19Z,125313859,20D,43.0883438,44.2205311,322.04,0,1.1,34.2,706406.38,-52002.58,27.1,0,322.039978027344,,,0.99981200696158,0.0193855874240398,13.859999999404
1973-12-21T09:24:19.25Z,125313859.25,20D,43.0883438,44.2205311,322.04,0,1.1,34.2,706406.38,-52002.58,27.1,0,322.039978027344,,,0.999810457240908,0.0194640662521124,14.109999999404
1973-12-21T09:24:19.5Z,125313859.5,20D,43.0883438,44.2205311,322.04,0,1.1,34.2,706406.38,-52002.58,27.1,0,322.039978027344,,,0.999808907520237,0.0195425450801849,14.359999999404
1973-12-21T09:24:19.75Z,125313859.75,20D,43.0883438,44.2205311,322.04,0,1.1,34.2,706406.38,-52002.58,27.1,0,322.039978027344,,,0.999807357799565,0.0196210239082575,14.609999999404
1973-12-21T09:24:20Z,125313860,20D,43.0883438,44.2205311,322.04,0,1.1,34.2,706406.38,-52002.58,27.1,0,322.039978027344,,,0.999805867683534,0.01969950273633,14.859999999404
1973-12-21T09:24:20.25Z,125313860.25,20D,43.0883438,44.2205311,322.04,0,1.1,34.2,706406.38,-52002.58,27.1,0,322.039978027344,,,0.999804258358221,0.0197779815644026,15.109999999404
1973-12-21T09:24:20.5Z,125313860.5,20D,43.0883438,44.2205311,322.04,0,1.1,34.2,706406.38,-52002.58,27.1,0,322.039978027344,,,0.999802708637549,0.01985645852983,15.359999999404
1973-12-21T09:24:20.75Z,125313860.75,20D,43.0883438,44.2205311,322.04,0,1.1,34.2,706406.38,-52002.58,27.1,0,322.039978027344,,,0.999801218521519,0.0199349373579025,15.609999999404
1973-12-21T09:24:21Z,125313861,20D,43.0883438,44.2205311,322.04,0,1.1,34.2,706406.38,-52002.58,27.1,0,322.039978027344,,,0.999799609196206,0.0200134161859751,15.859999999404
1973-12-21T09:24:21.25Z,125313861.25,20D,43.0883438,44.2205311,322.04,0,1.2,34.2,706406.38,-52002.58,27.1,0,322.039978027344,,,0.999797999870893,0.0200918950140476,16.109999999404
1973-12-21T09:24:21.5Z,125313861.5,20D,43.0883438,44.2205311,322.04,0,1.2,34.2,706406.38,-52002.58,27.1,0,322.039978027344,,,0.999796450150221,0.020170371979475,16.359999999404
1973-12-21T09:24:21.75Z,125313861.75,20D,43.0883438,44.2205311,322.04,0,1.2,34.2,706406.38,-52002.58,27.1,0,322.039978027344,,,0.999794840824908,0.0202488508075476,16.609999999404
1973-12-21T09:24:22Z,125313862,20D,43.0883438,44.2205311,322.04,0,1.2,34.2,706406.38,-52002.58,27.1,0,322.039978027344,,,0.999793291104236,0.0203273259103298,16.859999999404
1973-12-21T09:24:22.25Z,125313862.25,20D,43.0883438,44.2205311,322.04,0,1.2,34.2,706406.38,-52002.58,27.1,0,322.039978027344,,,0.999791681778923,0.0204058066010475,17.109999999404
1973-12-21T09:24:22.5Z,125313862.5,20D,43.0883438,44.2205311,322.04,0,1.2,34.2,706406.38,-52002.58,27.1,0,322.039978027344,,,0.99979007245361,0.0204842817038298,17.359999999404
1973-12-21T09:24:22.75Z,125313862.75,20D,43.0883438,44.2205311,322.04,0,1.2,34.2,706406.38,-52002.58,27.1,0,322.039978027344,,,0.999788403523656,0.0205627605319023,17.609999999404
1973-12-21T09:24:23Z,125313863,20D,43.0883438,44.2205311,322.04,0,1.2,34.2,706406.38,-52002.58,27.1,0,322.039978027344,,,0.999786853802984,0.0206412356346846,17.859999999404
1973-12-21T09:24:23.25Z,125313863.25,20D,43.0883438,44.2205311,322.04,0,1.2,34.2,706406.38,-52002.58,27.1,0,322.039978027344,,,0.999785244477671,0.0207197144627571,18.109999999404
1973-12-21T09:24:23.5Z,125313863.5,20D,43.0883438,44.2205311,322.04,0,1.2,34.2,706406.38,-52002.58,27.1,0,322.039978027344,,,0.999783575547717,0.0207981914281845,18.359999999404
1973-12-21T09:24:23.75Z,125313863.75,20D,43.0883438,44.2205311,322.04,0,1.2,34.2,706406.38,-52002.58,27.1,0,322.039978027344,,,0.999781966222404,0.0208766683936119,18.609999999404
1973-12-21T09:24:24Z,125313864,20D,43.0883438,44.2205311,322.04,0,1.2,34.2,706406.38,-52002.58,27.1,0,322.039978027344,,,0.99978321791987,0.0208179224282503,18.859999999404
1973-12-21T09:24:24.25Z,125313864.25,20D,43.0883438,44.2205311,322.04,0,1.1,34.2,706406.38,-52002.58,27.1,0,322.039978027344,,,0.999799072754435,0.0200387537479401,19.109999999404
1973-12-21T09:24:24.5Z,125313864.5,20D,43.0883438,44.2205311,322.04,0,1.1,34.2,706406.38,-52002.58,27.1,0,322.039978027344,,,0.99981445075187,0.0192595738917589,19.359999999404
1973-12-21T09:24:24.75Z,125313864.75,20D,43.0883438,44.2205311,322.04,0,1.2,34.2,706406.38,-52002.58,27.1,0,322.039978027344,,,0.999787092221549,0.0206309221684933,19.609999999404
1973-12-21T09:24:25Z,125313865,20D,43.0883438,44.2205311,322.04,0,1.2,34.2,706406.38,-52002.58,27.1,0,322.039978027344,,,0.999796211731656,0.0201837476342916,19.859999999404
1973-12-21T09:24:25.25Z,125313865.25,20D,43.0883438,44.2205311,322.04,0,1.1,34.2,706406.38,-52002.58,27.1,0,322.039978027344,,,0.999814867984359,0.0192351806908846,20.109999999404
1973-12-21T09:24:25.5Z,125313865.5,20D,43.0883438,44.2205311,322.04,0,1.1,34.2,706406.38,-52002.58,27.1,0,322.039978027344,,,0.99980568886961,0.0197080783545971,20.359999999404
1973-12-21T09:24:25.75Z,125313865.75,20D,43.0883438,44.2205311,322.04,0,1.2,34.2,706406.38,-52002.58,27.1,0,322.039978027344,,,0.999795079243473,0.0202401988208294,20.609999999404
1973-12-21T09:24:26Z,125313866,20D,43.0883438,44.2205311,322.04,0,1.2,34.2,706406.38,-52002.58,27.1,0,322.039978027344,,,0.999784111989488,0.0207723118364811,20.859999999404
1973-12-21T09:24:26.25Z,125313866.25,20D,43.0883438,44.2205311,322.04,0,1.2,34.2,706406.38,-52002.58,27.1,0,322.039978027344,,,0.999793648732084,0.0203112978488207,21.109999999404
1973-12-21T09:24:26.5Z,125313866.5,20D,43.0883438,44.2205311,322.04,0,1.1,34.2,706406.38,-52002.58,27.1,0,322.039978027344,,,0.999812066566221,0.0193829163908958,21.359999999404
1973-12-21T09:24:26.75Z,125313866.75,20D,43.0883438,44.2205311,322.04,0,1.1,34.2,706406.38,-52002.58,27.1,0,322.039978027344,,,0.999796545616946,0.0198557426286716,21.609999999404
1973-12-21T09:24:27Z,125313867,20D,43.0883438,44.2205311,322.04,0,1.2,34.2,706406.38,-52002.58,27.1,0,322.039978027344,,,0.999751855075108,0.0206784344543873,21.859999999404
1973-12-21T09:24:27.25Z,125313867.25,20D,43.0883438,44.2205311,322.04,0,1.2,34.2,706406.38,-52002.58,27.1,0,322.039978027344,,,0.999725212518432,0.0204626918292652,22.109999999404
1973-12-21T09:24:27.5Z,125313867.5,20D,43.0883438,44.2205311,322.04,0,1.1,34.2,706406.38,-52002.58,27.1,0,322.039978027344,,,0.999711336031516,0.0197584155839421,22.359999999404
1973-12-21T09:24:27.75Z,125313867.75,20D,43.0883438,44.2205311,322.04,0,1.1,34.2,706406.38,-52002.58,27.1,6.103515625e-05,322.039916992188,,,0.999706685912995,0.0191951476954087,22.609999999404
1973-12-21T09:24:28Z,125313868,20D,43.0883438,44.2205311,322.04,0,1.1,34.2,706406.38,-52002.58,27.1,0.000335693359375,322.039642333984,,,0.999731576730608,0.0191956256185598,22.859999999404
1973-12-21T09:24:28.25Z,125313868.25,20D,43.0883438,44.2205311,322.04,0,1.1,34.2,706406.38,-52002.58,27.1,0.000640869140625,322.039337158203,,,0.999765801604827,0.0191962827628926,23.109999999404
1973-12-21T09:24:28.5Z,125313868.5,20D,43.0883438,44.2205311,322.04,0,1.1,34.2,706406.38,-52002.58,27.1,0.00091552734375,322.0390625,,,0.999793803774642,0.0191968204264375,23.359999999404
1973-12-21T09:24:28.75Z,125313868.75,20D,43.0883438,44.2205311,322.04,0,1.1,34.2,706406.38,-52002.58,27.1,0.001129150390625,322.038787841797,,,0.999812471887852,0.0191971788688009,23.609999999404
1973-12-21T09:24:29Z,125313869,20D,43.0883438,44.2205311,322.04,0,1.1,34.2,706406.38,-52002.58,27.1,0.00115966796875,322.038482666016,,,0.999818694592255,0.0191972983495886,23.859999999404
1973-12-21T09:24:29.25Z,125313869.25,20D,43.0883438,44.2205311,322.04,0,1.1,34.2,706406.38,-52002.58,27.1,0.001129150390625,322.038208007812,,,0.999812471887852,0.0191971788688009,24.109999999404
1973-12-21T09:24:29.5Z,125313869.5,20D,43.0883438,44.2205311,322.04,0,1.1,34.2,706406.38,-52002.58,27.1,0.001129150390625,322.037933349609,,,0.999812471887852,0.0191971788688009,24.359999999404
1973-12-21T09:24:29.75Z,125313869.75,20D,43.0883438,44.2205311,322.04,0,1.1,34.2,706406.38,-52002.58,27.1,0.00115966796875,322.037628173828,,,0.999818694592255,0.0191972983495886,24.609999999404
1973-12-21T09:24:30Z,125313870,20D,43.0883438,44.2205311,322.04,0,1.1,34.2,706406.38,-52002.58,27.1,0.001129150390625,322.037353515625,,,0.999812471887852,0.0191971788688009,24.859999999404
1973-12-21T09:24:30.25Z,125313870.25,20D,43.0883438,44.2205311,322.04,0,1.1,34.2,706406.38,-52002.58,27.1,0.00115966796875,322.037048339844,,,0.999818694592255,0.0191972983495886,25.109999999404
1973-12-21T09:24:30.5Z,125313870.5,20D,43.0883438,44.2205311,322.04,0,1.1,34.2,706406.38,-52002.58,27.1,0.00115966796875,322.036773681641,,,0.999818694592255,0.0191972983495886,25.359999999404
1973-12-21T09:24:30.75Z,125313870.75,20D,43.0883438,44.2205311,322.04,0,1.1,34.2,706406.38,-52002.58,27.1,0.001129150390625,322.036499023438,,,0.999812471887852,0.0191971788688009,25.609999999404
1973-12-21T09:24:31Z,125313871,20D,43.0883438,44.2205311,322.04,0,1.1,34.2,706406.38,-52002.58,27.1,0.00115966796875,322.036193847656,,,0.999818694592255,0.0191972983495886,25.859999999404
1973-12-21T09:24:31.25Z,125313871.25,20D,43.0883438,44.2205311,322.04,0,1.1,34.2,706406.38,-52002.58,27.1,0.001129150390625,322.035919189453,,,0.999815583240054,0.0191972386091948,26.109999999404
1973-12-21T09:24:31.5Z,125313871.5,20D,43.0883438,44.2205311,322.04,0,1.1,34.2,706406.38,-52002.58,27.1,0.001129150390625,322.03564453125,,,0.999812471887852,0.0191971788688009,26.359999999404
1973-12-21T09:24:31.75Z,125313871.75,20D,43.0883438,44.2205311,322.04,0,1.1,34.2,706406.38,-52002.58,27.1,0.00115966796875,322.035339355469,,,0.999818694592255,0.0191972983495886,26.609999999404
1973-12-21T09:24:32Z,125313872,20D,43.0883438,44.2205311,322.04,0,1.1,34.2,706406.38,-52002.58,27.1,0.001129150390625,322.035064697266,,,0.999812471887852,0.0191971788688009,26.859999999404
1973-12-21T09:24:32.25Z,125313872.25,20D,43.0883438,44.2205311,322.03,0,1.1,34.2,706406.38,-52002.58,27.1,0.001129150390625,322.034790039062,,,0.999812471887852,0.0191971788688009,27.109999999404
1973-12-21T09:24:32.5Z,125313872.5,20D,43.0883438,44.2205311,322.03,0,1.1,34.2,706406.38,-52002.58,27.1,0.00115966796875,322.034484863281,,,0.999818694592255,0.0191972983495886,27.359999999404
1973-12-21T09:24:32.75Z,125313872.75,20D,43.0883438,44.2205311,322.03,0,1.1,34.2,706406.38,-52002.58,27.1,0.001129150390625,322.034210205078,,,0.999812471887852,0.0191971788688009,27.609999999404
1973-12-21T09:24:33Z,125313873,20D,43.0883438,44.2205311,322.03,0,1.1,34.2,706406.38,-52002.58,27.1,0.00115966796875,322.033905029297,,,0.999818694592255,0.0191972983495886,27.859999999404
1973-12-21T09:24:33.25Z,125313873.25,20D,43.0883438,44.2205311,322.03,0,1.1,34.2,706406.38,-52002.58,27.1,0.00115966796875,322.033630371094,,,0.999818694592255,0.0191972983495886,28.109999999404
1973-12-21T09:24:33.5Z,125313873.5,20D,43.0883438,44.2205311,322.03,0,1.1,34.2,706406.38,-52002.58,27.1,0.001129150390625,322.033355712891,,,0.999812471887852,0.0191971788688009,28.359999999404
1973-12-21T09:24:33.75Z,125313873.75,20D,43.0883438,44.2205311,322.03,0,1.1,34.2,706406.38,-52002.58,27.1,0.00115966796875,322.033050537109,,,0.999818694592255,0.0191972983495886,28.609999999404
1973-12-21T09:24:34Z,125313874,20D,43.0883438,44.2205311,322.03,0,1.1,34.2,706406.38,-52002.58,27.1,0.001129150390625,322.032775878906,,,0.999815583240054,0.0191972386091948,28.859999999404
1973-12-21T09:24:34.25Z,125313874.25,20D,43.0883438,44.2205311,322.03,0,1.1,34.2,706406.38,-52002.58,27.1,0.001129150390625,322.032501220703,,,0.999812471887852,0.0191971788688009,29.109999999404
1973-12-21T09:24:34.5Z,125313874.5,20D,43.0883438,44.2205311,322.03,0,1.1,34.2,706406.38,-52002.58,27.1,0.00115966796875,322.032196044922,,,0.999818694592255,0.0191972983495886,29.359999999404
1973-12-21T09:24:34.75Z,125313874.75,20D,43.0883438,44.2205311,322.03,0,1.1,34.2,706406.38,-52002.58,27.1,0.001129150390625,322.031921386719,,,0.999812471887852,0.0191971788688009,29.609999999404
1973-12-21T09:24:35Z,125313875,20D,43.0883438,44.2205311,322.03,0,1.1,34.2,706406.38,-52002.58,27.1,0.001129150390625,322.031646728516,,,0.999812471887852,0.0191971788688009,29.859999999404
1973-12-21T09:24:35.25Z,125313875.25,20D,43.0883438,44.2205311,322.03,0,1.1,34.2,706406.38,-52002.58,27.1,0.00115966796875,322.031341552734,,,0.999818694592255,0.0191972983495886,30.109999999404
1973-12-21T09:24:35.5Z,125313875.5,20D,43.0883438,44.2205311,322.03,0,1.1,34.2,706406.38,-52002.58,27.1,0.001129150390625,322.031066894531,,,0.999964928145733,0.0192001061481014,30.359999999404
1973-12-21T09:24:35.75Z,125313875.75,20D,43.0883438,44.2205311,322.03,0,1.1,34.2,706406.38,-52002.58,27.1,0.00115966796875,322.03076171875,,,1.00050630342882,0.0192105009766378,30.609999999404
1973-12-21T09:24:36Z,125313876,20D,43.0883438,44.2205311,322.03,0,1.1,34.2,706406.38,-52002.58,27.1,0.00115966796875,322.030487060547,,,1.00090144515843,0.0192180880066615,30.859999999404
1973-12-21T09:24:36.25Z,125313876.25,20D,43.0883438,44.2205311,322.03,0,1.1,34.2,706406.38,-52002.58,27.1,0.001129150390625,322.030212402344,,,1.00039429474956,0.0192083503224578,31.109999999404
1973-12-21T09:24:36.5Z,125313876.5,20D,43.0883438,44.2205311,322.03,0,1.1,34.2,706406.38,-52002.58,27.1,0.000335693359375,322.031402587891,,,0.999638236164559,0.0191938334067432,31.359999999404
1973-12-21T09:24:36.75Z,125313876.75,20D,43.0883438,44.2205311,322.04,0,1.1,34.2,706406.38,-52002.58,27.1,0.005615234375,322.036376953125,,,0.999258651195956,0.0191865450786889,31.609999999404
1973-12-21T09:24:37Z,125313877,20D,43.0883438,44.2205311,322.04,0,1.1,34.2,706406.38,-52002.58,27.1,0.009490966796875,322.039978027344,,,0.999564686945027,0.0197742889530091,31.859999999404
1973-12-21T09:24:37.25Z,125313877.25,20D,43.0883438,44.2205311,322.03,0,1.2,34.2,706406.38,-52002.58,27.1,0.004547119140625,322.034759521484,,,1.00009477126058,0.0209491697561739,32.109999999404
1973-12-21T09:24:37.5Z,125313877.5,20D,43.0883438,44.2205311,322.03,0,1.1,34.2,706406.38,-52002.58,27.1,0.00140380859375,322.029998779297,,,1.00050597483342,0.0197097060367447,32.359999999404
1973-12-21T09:24:37.75Z,125313877.75,20D,43.0883438,44.2205311,322.04,0,1.1,34.2,706406.38,-52002.58,27.1,0.000152587890625,322.036529541016,,,0.999227537673939,0.01918594767475,32.609999999404
1973-12-21T09:24:38Z,125313878,20D,43.0883438,44.2205311,322.05,0,1.1,34.2,706406.38,-52002.58,27.1,0.00714111328125,322.047119140625,,,0.998592821824799,0.019173760634397,32.859999999404
1973-12-21T09:24:38.25Z,125313878.25,20D,43.0883438,44.2205311,322.04,0,1.1,34.2,706406.38,-52002.58,27.1,0.00762939453125,322.042388916016,,,0.999681795095382,0.0191946697722576,33.109999999404
1973-12-21T09:24:38.5Z,125313878.5,20D,43.0883438,44.2205311,322.04,0,1.1,34.2,706406.38,-52002.58,27.1,0.005462646484375,322.035461425781,,,1.00019516820866,0.019204526937249,33.359999999404
1973-12-21T09:24:38.75Z,125313878.75,20D,43.0883438,44.2205311,322.03,0,1.1,34.2,706406.38,-52002.58,27.1,0.005615234375,322.030914306641,,,1.00137748204529,0.0192272282869263,33.609999999404
1973-12-21T09:24:39Z,125313879,20D,43.0883438,44.2205311,322.04,0,1.1,34.2,706406.38,-52002.58,27.1,0.004852294921875,322.042266845703,,,1.00007693682499,0.0192022568022813,33.859999999404
1973-12-21T09:24:39.25Z,125313879.25,20D,43.0883438,44.2205311,322.05,0,1.1,34.2,706406.38,-52002.58,27.1,0.006317138671875,322.048706054688,,,0.998281686604633,0.0191677865950082,34.109999999404
1973-12-21T09:24:39.5Z,125313879.5,20D,43.0883438,44.2205311,322.04,0,1.1,34.2,706406.38,-52002.58,27.1,0.009185791015625,322.044647216797,,,0.998403029340498,0.0191701164703698,34.359999999404
1973-12-21T09:24:39.75Z,125313879.75,20D,43.0883438,44.2205311,322.04,0,1.1,34.2,706406.38,-52002.58,27.1,0.00970458984375,322.040618896484,,,0.999482084007277,0.0195454959062678,34.609999999404
1973-12-21T09:24:40Z,125313880,20D,43.0883438,44.2205311,322.04,-0,1.1,34.2,706406.38,-52002.58,27.1,0.002288818359375,322.039978027344,,,1.0002442331508,0.0184295492253099,34.859999999404
1973-12-21T09:24:40.25Z,125313880.25,20D,43.0883438,44.2205311,322.04,-0.1,1.1,34.2,706406.38,-52002.58,27.1,0.00872802734375,322.039978027344,,,1.00070003701355,0.0198568693996937,35.109999999404
1973-12-21T09:24:40.5Z,125313880.5,20D,43.0883438,44.2205311,322.04,-0.1,1.1,34.2,706406.38,-52002.58,27.1,0.004669189453125,322.039978027344,,,1.0003091939721,0.0187853338120128,35.359999999404
1973-12-21T09:24:40.75Z,125313880.75,20D,43.0883437,44.2205312,322.05,-0.4,1.1,34.2,706406.38,-52002.57,27.1,0.00758366421660596,322.047119140625,,,0.998385438004406,0.0202341247684209,35.609999999404
1973-12-21T09:24:41Z,125313881,20D,43.0883434,44.2205314,322.04,-1.2,1.1,34.2,706406.31,-52002.55,27.1,0.0667726910742328,322.041717529297,,,0.998936412996586,0.022514228628204,35.859999999404
1973-12-21T09:24:41.25Z,125313881.25,20D,43.0883433,44.2205314,322.04,-1.7,1,34.2,706406.31,-52002.54,27.1,0.0737029775941922,322.039978027344,,,0.998994067736013,0.0180191991628037,36.109999999404
1973-12-21T09:24:41.5Z,125313881.5,20D,43.0883434,44.2205314,322.04,-1.5,1,34.2,706406.31,-52002.55,27.1,0.0682197234241132,322.039978027344,,,0.999138850163492,0.0195242298986895,36.359999999404
1973-12-21T09:24:41.75Z,125313881.75,20D,43.0883436,44.2205313,322.04,-1.1,1.1,34.2,706406.38,-52002.56,27.1,0.0171795263000947,322.039978027344,,,1.00038574242162,0.0167295075923455,36.609999999404
1973-12-21T09:24:42Z,125313882,20D,43.0883437,44.2205312,322.04,-0.8,1.1,34.2,706406.38,-52002.56,27.1,0.06264610647205,322.039978027344,,,1.0000451899923,0.0155888283883181,36.859999999404
1973-12-21T09:24:42.25Z,125313882.25,20D,43.0883437,44.2205312,322.04,-0.8,1.1,34.2,706406.38,-52002.56,27.1,0.0654806820868758,322.039978027344,,,0.999849592344516,0.0170035433395916,37.109999999404
1973-12-21T09:24:42.5Z,125313882.5,20D,43.0883436,44.2205312,322.04,-0.9,1.1,34.2,706406.38,-52002.57,27.1,0.0644235254002759,322.039978027344,,,0.999828317981189,0.0173580733780229,37.359999999404
1973-12-21T09:24:42.75Z,125313882.75,20D,43.0883435,44.2205312,322.04,-0.9,1.1,34.2,706406.38,-52002.57,27.1,0.01171875,322.039978027344,,,0.999680415275243,0.0202608287244886,37.609999999404
1973-12-21T09:24:43Z,125313883,20D,43.0883435,44.2205312,322.04,-0.8,1.1,34.2,706406.38,-52002.57,27.1,0.01171875,322.039978027344,,,0.999698277983615,0.0202608287244886,37.859999999404
1973-12-21T09:24:43.25Z,125313883.25,20D,43.0883436,44.2205312,322.04,-0.8,1.1,34.2,706406.38,-52002.57,27.1,0.01171875,322.039978027344,,,0.999705328456953,0.0202608287244886,38.109999999404
1973-12-21T09:24:43.5Z,125313883.5,20D,43.0883436,44.2205312,322.04,-0.8,1.1,34.2,706406.38,-52002.57,27.1,0.00390625,322.039978027344,,,0.999717403516692,0.019551768647626,38.359999999404
1973-12-21T09:24:43.75Z,125313883.75,20D,43.0883436,44.2205312,322.04,-0.8,1.1,34.2,706406.38,-52002.57,27.1,0,322.039978027344,,,0.999726311943018,0.0191972386091948,38.609999999404
1973-12-21T09:24:44Z,125313884,20D,43.0883436,44.2205312,322.04,-0.7,1.1,34.2,706406.38,-52002.57,27.1,0,322.039978027344,,,1.00056449349379,0.0192132490347566,38.859999999404
1973-12-21T09:24:44.25Z,125313884.25,20D,43.0883436,44.2205312,322.04,-0.7,1.1,34.2,706406.38,-52002.57,27.1,0,322.039978027344,,,1.00123257943129,0.0181621446617853,39.109999999404
1973-12-21T09:24:44.5Z,125313884.5,20D,43.0883436,44.2205312,322.04,-0.7,1.1,34.2,706406.38,-52002.57,27.1,0,322.039978027344,,,1.00065676242465,0.0203469386126992,39.359999999404
1973-12-21T09:24:44.75Z,125313884.75,20D,43.0883436,44.2205312,322.04,-0.7,1.1,34.2,706406.38,-52002.57,27.1,0,322.039978027344,,,1.00078436866694,0.0174441832662335,39.609999999404
1973-12-21T09:24:45Z,125313885,20D,43.0883438,44.2205312,322.05,-0.5,1.1,34.2,706406.38,-52002.57,27.1,0.0081787109375,322.048156738281,,,0.999163814362444,0.0174121624151098,39.859999999404
1973-12-21T09:24:45.25Z,125313885.25,20D,43.088344,44.220531,322.05,0.2,1,34.2,706406.38,-52002.58,27.1,0.0186877498817323,322.054534912109,,,0.997849113965881,0.0196280665051839,40.109999999404
1973-12-21T09:24:45.5Z,125313885.5,20D,43.0883442,44.220531,322.05,0.6,1,34.3,706406.44,-52002.59,27.1,0.0662413400712118,322.049987792969,,,0.998672394860996,0.0144651276658128,40.359999999404
1973-12-21T09:24:45.75Z,125313885.75,20D,43.088344,44.220531,322.05,0.5,1,34.3,706406.38,-52002.59,27.1,0.021946870720673,322.049987792969,,,0.99872347742134,0.02027082452556,40.609999999404
1973-12-21T09:24:46Z,125313886,20D,43.0883439,44.220531,322.05,0.1,1.1,34.2,706406.38,-52002.59,27.1,0.0196168929199075,322.049987792969,,,0.999570900615174,0.0220298944930117,40.859999999404
1973-12-21T09:24:46.25Z,125313886.25,20D,43.0883439,44.220531,322.05,0,1.1,34.2,706406.38,-52002.58,27.1,0.00599458768736752,322.049987792969,,,1.00029528674706,0.018352829056962,41.109999999404
1973-12-21T09:24:46.5Z,125313886.5,20D,43.0883438,44.2205311,322.05,0,1,34.2,706406.38,-52002.58,27.1,0.0635891429535145,322.049987792969,,,0.99982035711767,0.0192915312536197,41.359999999404
1973-12-21T09:24:46.75Z,125313886.75,20D,43.0883439,44.220531,322.05,0.2,1.1,34.2,706406.38,-52002.58,27.1,0.01171875,322.049987792969,,,0.999844931955819,0.0174991217662013,41.609999999404
1973-12-21T09:24:47Z,125313887,20D,43.0883439,44.2205311,322.05,0.1,1.1,34.2,706406.38,-52002.58,27.1,0.01171875,322.049987792969,,,0.999835050294069,0.0181336484939009,41.859999999404
1973-12-21T09:24:47.25Z,125313887.25,20D,43.0883439,44.2205311,322.05,0,1.1,34.2,706406.38,-52002.58,27.1,0,322.049987792969,,,0.999815285271772,0.0191972386091948,42.109999999404
1973-12-21T09:24:47.5Z,125313887.5,20D,43.0883439,44.2205311,322.05,0,1.1,34.2,706406.38,-52002.58,27.1,0,322.049987792969,,,0.999815583240054,0.0191972386091948,42.359999999404
1973-12-21T09:24:47.75Z,125313887.75,20D,43.0883439,44.2205311,322.05,0.1,1.1,34.2,706406.38,-52002.58,27.1,0,322.049987792969,,,0.999814808522522,0.0191972386091948,42.609999999404
1973-12-21T09:24:48Z,125313888,20D,43.0883439,44.2205311,322.05,0.1,1.1,34.2,706406.38,-52002.58,27.1,0,322.049987792969,,,0.999814331773273,0.0191972386091948,42.859999999404
1973-12-21T09:24:48.25Z,125313888.25,20D,43.0883439,44.2205311,322.05,0.1,1.1,34.2,706406.38,-52002.58,27.1,0,322.049987792969,,,0.999814629741554,0.0191972386091948,43.109999999404
1973-12-21T09:24:48.5Z,125313888.5,20D,43.0883439,44.2205311,322.05,0.1,1.1,34.2,706406.38,-52002.58,27.1,0,322.049987792969,,,0.999814868116179,0.0191972386091948,43.359999999404
1973-12-21T09:24:48.75Z,125313888.75,20D,43.0883439,44.2205311,322.05,0.1,1.1,34.2,706406.38,-52002.58,27.1,0,322.049987792969,,,0.999815106490804,0.0191972386091948,43.609999999404
1973-12-21T09:24:49Z,125313889,20D,43.0883439,44.2205311,322.05,0,1.1,34.2,706406.38,-52002.58,27.1,0,322.049987792969,,,0.999815344865429,0.0191972386091948,43.859999999404
1973-12-21T09:24:49.25Z,125313889.25,20D,43.0883439,44.2205311,322.05,0,1.1,34.2,706406.38,-52002.58,27.1,0,322.049987792969,,,0.999815464052741,0.0191972386091948,44.109999999404
1973-12-21T09:24:49.5Z,125313889.5,20D,43.0883439,44.2205311,322.05,0,1.1,34.2,706406.38,-52002.58,27.1,0,322.049987792969,,,0.999815583240054,0.0191972386091948,44.359999999404
1973-12-21T09:24:49.75Z,125313889.75,20D,43.0883439,44.2205311,322.05,0,1.1,34.2,706406.38,-52002.58,27.1,0,322.049987792969,,,0.999815583240054,0.0191972386091948,44.609999999404
1973-12-21T09:24:50Z,125313890,20D,43.0883439,44.2205311,322.05,0,1.1,34.2,706406.38,-52002.58,27.1,0,322.049987792969,,,0.999815642844695,0.0191934946924448,44.859999999404
1973-12-21T09:24:50.25Z,125313890.25,20D,43.0883439,44.2205311,322.05,0,1.1,34.2,706406.38,-52002.58,27.1,0,322.049987792969,,,0.999815762053977,0.0191868115216494,45.109999999404
1973-12-21T09:24:50.5Z,125313890.5,20D,43.0883439,44.2205311,322.05,0,1.1,34.2,706406.38,-52002.58,27.1,0,322.049987792969,,,0.999816000472542,0.0191801264882088,45.359999999404
1973-12-21T09:24:50.75Z,125313890.75,20D,43.0883439,44.2205311,322.05,0,1.1,34.2,706406.38,-52002.58,27.1,0,322.049987792969,,,0.999816060077183,0.0191734414547682,45.609999999404
1973-12-21T09:24:51Z,125313891,20D,43.0883439,44.2205311,322.05,0,1.1,34.2,706406.38,-52002.58,27.1,0,322.049987792969,,,0.999816179286466,0.0191667582839727,45.859999999404
1973-12-21T09:24:51.25Z,125313891.25,20D,43.0883439,44.2205311,322.05,0,1.1,34.2,706406.38,-52002.58,27.1,0,322.049987792969,,,0.999816358100389,0.0191600732505322,46.109999999404
1973-12-21T09:24:51.5Z,125313891.5,20D,43.0883439,44.2205311,322.05,0,1.1,34.2,706406.38,-52002.58,27.1,0,322.049987792969,,,0.999816417705031,0.0191533882170916,46.359999999404
1973-12-21T09:24:51.75Z,125313891.75,20D,43.0883439,44.2205311,322.05,0,1.1,34.2,706406.38,-52002.58,27.1,0,322.049987792969,,,0.999816596518954,0.0191467050462961,46.609999999404
1973-12-21T09:24:52Z,125313892,20D,43.0883439,44.2205311,322.05,0,1.1,34.2,706406.38,-52002.58,27.1,0,322.049987792969,,,0.999816775332878,0.0191400181502104,46.859999999404
1973-12-21T09:24:52.25Z,125313892.25,20D,43.0883439,44.2205311,322.05,0,1.1,34.2,706406.38,-52002.58,27.1,0,322.049987792969,,,0.999816834937519,0.0191333349794149,47.109999999404
1973-12-21T09:24:52.5Z,125313892.5,20D,43.0883439,44.2205311,322.05,0,1.1,34.2,706406.38,-52002.58,27.1,0,322.049987792969,,,0.999816954146802,0.0191266518086195,47.359999999404
1973-12-21T09:24:52.75Z,125313892.75,20D,43.0883439,44.2205311,322.05,0,1.1,34.2,706406.38,-52002.58,27.1,0,322.049987792969,,,0.999817132960725,0.0191199649125338,47.609999999404
1973-12-21T09:24:53Z,125313893,20D,43.0883439,44.2205311,322.05,0,1.1,34.2,706406.38,-52002.58,27.1,0,322.049987792969,,,0.999817252170008,0.0191132817417383,47.859999999404
1973-12-21T09:24:53.25Z,125313893.25,20D,43.0883439,44.2205311,322.05,0,1.1,34.2,706406.38,-52002.58,27.1,0,322.049987792969,,,0.999817311774649,0.0191065985709429,48.109999999404
1973-12-21T09:24:53.5Z,125313893.5,20D,43.0883439,44.2205311,322.05,0,1.1,34.2,706406.38,-52002.58,27.1,0,322.049987792969,,,0.999817490588572,0.0190999116748571,48.359999999404
1973-12-21T09:24:53.75Z,125313893.75,20D,43.0883439,44.2205311,322.05,0,1.1,34.2,706406.38,-52002.58,27.1,0,322.049987792969,,,0.999817609797855,0.0190932285040617,48.609999999404
1973-12-21T09:24:54Z,125313894,20D,43.0883439,44.2205311,322.05,0,1.1,34.2,706406.38,-52002.58,27.1,0,322.049987792969,,,0.999817729007138,0.0190865453332663,48.859999999404
1973-12-21T09:24:54.25Z,125313894.25,20D,43.0883439,44.2205311,322.05,0,1.1,34.2,706406.38,-52002.58,27.1,0,322.049987792969,,,0.99981784821642,0.0190798584371805,49.109999999404
1973-12-21T09:24:54.5Z,125313894.5,20D,43.0883439,44.2205311,322.05,0,1.1,34.2,706406.38,-52002.58,27.1,0,322.049987792969,,,0.999817967425702,0.0190731752663851,49.359999999404
1973-12-21T09:24:54.75Z,125313894.75,20D,43.0883439,44.2205311,322.05,0,1.1,34.2,706406.38,-52002.58,27.1,0,322.049987792969,,,0.999818146239626,0.0190664920955896,49.609999999404
1973-12-21T09:24:55Z,125313895,20D,43.0883439,44.2205311,322.05,0,1.1,34.2,706406.38,-52002.58,27.1,0,322.049987792969,,,0.999818265448909,0.0190598051995039,49.859999999404
1973-12-21T09:24:55.25Z,125313895.25,20D,43.0883439,44.2205311,322.05,0,1.1,34.2,706406.38,-52002.58,27.1,0,322.049987792969,,,0.99981832505355,0.0190531220287085,50.109999999404
1973-12-21T09:24:55.5Z,125313895.5,20D,43.0883439,44.2205311,322.05,0,1.1,34.2,706406.38,-52002.58,27.1,0,322.049987792969,,,0.999818444262832,0.019046438857913,50.359999999404
1973-12-21T09:24:55.75Z,125313895.75,20D,43.0883439,44.2205311,322.05,0,1.1,34.2,706406.38,-52002.58,27.1,0,322.049987792969,,,0.999818682681397,0.0190397519618273,50.609999999404
1973-12-21T09:24:56Z,125313896,20D,43.0883439,44.2205311,322.05,0,1.1,34.2,706406.38,-52002.58,27.1,0,322.049987792969,,,0.999818742286038,0.0190330687910318,50.859999999404
1973-12-21T09:24:56.25Z,125313896.25,20D,43.0883439,44.2205311,322.05,0,1.1,34.2,706406.38,-52002.58,27.1,0,322.049987792969,,,0.999818921099962,0.0190263856202364,51.109999999404
1973-12-21T09:24:56.5Z,125313896.5,20D,43.0883439,44.2205311,322.05,0,1.1,34.2,706406.38,-52002.58,27.1,0,322.049987792969,,,0.999819040309244,0.0190196987241507,51.359999999404
1973-12-21T09:24:56.75Z,125313896.75,20D,43.0883439,44.2205311,322.05,0,1.1,34.2,706406.38,-52002.58,27.1,0,322.049987792969,,,0.999819099913886,0.0190130155533552,51.609999999404
1973-12-21T09:24:57Z,125313897,20D,43.0883439,44.2205311,322.05,0,1.1,34.2,706406.38,-52002.58,27.1,0,322.049987792969,,,0.999819219123168,0.0190063323825598,51.859999999404
1973-12-21T09:24:57.25Z,125313897.25,20D,43.0883439,44.2205311,322.05,0,1.1,34.2,706406.38,-52002.58,27.1,0,322.049987792969,,,0.999819457541733,0.018999645486474,52.109999999404
1973-12-21T09:24:57.5Z,125313897.5,20D,43.0883439,44.2205311,322.05,0,1.1,34.2,706406.38,-52002.58,27.1,0,322.049987792969,,,0.999819517146374,0.0189929623156786,52.359999999404
1973-12-21T09:24:57.75Z,125313897.75,20D,43.0883439,44.2205311,322.05,0,1.1,34.2,706406.38,-52002.58,27.1,0,322.049987792969,,,0.999819636355657,0.018986277282238,52.609999999404
1973-12-21T09:24:58Z,125313898,20D,43.0883439,44.2205311,322.05,0,1.1,34.2,706406.38,-52002.58,27.1,0,322.049987792969,,,0.99981981516958,0.0189795922487974,52.859999999404
1973-12-21T09:24:58.25Z,125313898.25,20D,43.0883439,44.2205311,322.05,0,1.1,34.2,706406.38,-52002.58,27.1,0,322.049987792969,,,0.999819874774222,0.018972909078002,53.109999999404
1973-12-21T09:24:58.5Z,125313898.5,20D,43.0883439,44.2205311,322.05,0,1.1,34.2,706406.38,-52002.58,27.1,0,322.049987792969,,,0.999819993983504,0.0189662240445614,53.359999999404
1973-12-21T09:24:58.75Z,125313898.75,20D,43.0883439,44.2205311,322.05,0,1.1,34.2,706406.38,-52002.58,27.1,0,322.049987792969,,,0.999820172797428,0.0189595390111208,53.609999999404
1973-12-21T09:24:59Z,125313899,20D,43.0883439,44.2205311,322.05,0,1.1,34.2,706406.38,-52002.58,27.1,0,322.049987792969,,,0.99982029200671,0.0189528558403254,53.859999999404
1973-12-21T09:24:59.25Z,125313899.25,20D,43.0883439,44.2205311,322.05,0,1.1,34.2,706406.38,-52002.58,27.1,0,322.049987792969,,,0.999820411215992,0.0189461708068848,54.109999999404
1973-12-21T09:24:59.5Z,125313899.5,20D,43.0883439,44.2205311,322.05,0,1.1,34.2,706406.38,-52002.58,27.1,0,322.049987792969,,,0.999820530425275,0.0189394857734442,54.359999999404
1973-12-21T09:24:59.75Z,125313899.75,20D,43.0883439,44.2205311,322.05,0,1.1,34.2,706406.38,-52002.58,27.1,0,322.049987792969,,,0.999820590029916,0.0189328026026487,54.609999999404
1973-12-21T09:25:00Z,125313900,20D,43.0883439,44.2205311,322.05,0,1.1,34.2,706406.38,-52002.58,27.1,0,322.049987792969,,,0.999820828448481,0.0189261175692081,54.859999999404
1973-12-21T09:25:00.25Z,125313900.25,20D,43.0883439,44.2205311,322.05,0,1.1,34.2,706406.38,-52002.58,27.1,0,322.049987792969,,,0.999820888053122,0.0189194325357676,55.109999999404
1973-12-21T09:25:00.5Z,125313900.5,20D,43.0883439,44.2205311,322.05,0,1.1,34.2,706406.38,-52002.58,27.1,0,322.049987792969,,,0.999821007262405,0.0189127493649721,55.359999999404
1973-12-21T09:25:00.75Z,125313900.75,20D,43.0883439,44.2205311,322.05,0,1.1,34.2,706406.38,-52002.58,27.1,0,322.049987792969,,,0.999821186076328,0.0189060643315315,55.609999999404
1973-12-21T09:25:01Z,125313901,20D,43.0883439,44.2205311,322.05,0,1.1,34.2,706406.38,-52002.58,27.1,0,322.049987792969,,,0.999821305285611,0.0188993792980909,55.859999999404
1973-12-21T09:25:01.25Z,125313901.25,20D,43.0883439,44.2205311,322.05,0,1.1,34.2,706406.38,-52002.58,27.1,0,322.049987792969,,,0.999821424494893,0.0188926961272955,56.109999999404
1973-12-21T09:25:01.5Z,125313901.5,20D,43.0883439,44.2205311,322.05,0,1.1,34.2,706406.38,-52002.58,27.1,0,322.049987792969,,,0.999821543704176,0.0188860110938549,56.359999999404
1973-12-21T09:25:01.75Z,125313901.75,20D,43.0883439,44.2205311,322.05,0,1.1,34.2,706406.38,-52002.58,27.1,0,322.049987792969,,,0.999821662913458,0.0188793260604143,56.609999999404
1973-12-21T09:25:02Z,125313902,20D,43.0883439,44.2205311,322.05,0,1.1,34.2,706406.38,-52002.58,27.1,0,322.049987792969,,,0.999821782122741,0.0188726410269737,56.859999999404
1973-12-21T09:25:02.25Z,125313902.25,20D,43.0883439,44.2205311,322.05,0,1.1,34.2,706406.38,-52002.58,27.1,0,322.049987792969,,,0.999821960936664,0.0188659578561783,57.109999999404
1973-12-21T09:25:02.5Z,125313902.5,20D,43.0883439,44.2205311,322.05,0,1.1,34.2,706406.38,-52002.58,27.1,0,322.049987792969,,,0.999822080145947,0.0188592728227377,57.359999999404
1973-12-21T09:25:02.75Z,125313902.75,20D,43.0883439,44.2205311,322.05,0,1.1,34.2,706406.38,-52002.58,27.1,0,322.049987792969,,,0.999822199355229,0.0188525877892971,57.609999999404
1973-12-21T09:25:03Z,125313903,20D,43.0883439,44.2205311,322.05,0,1.1,34.2,706406.38,-52002.58,27.1,0,322.049987792969,,,0.999822378169153,0.0188459046185017,57.859999999404
1973-12-21T09:25:03.25Z,125313903.25,20D,43.0883439,44.2205311,322.05,0,1.1,34.2,706406.38,-52002.58,27.1,0,322.049987792969,,,0.999822437773794,0.0188392195850611,58.109999999404
1973-12-21T09:25:03.5Z,125313903.5,20D,43.0883439,44.2205311,322.05,0,1.1,34.2,706406.38,-52002.58,27.1,0,322.049987792969,,,0.999822556983077,0.0188325345516205,58.359999999404
1973-12-21T09:25:03.75Z,125313903.75,20D,43.0883439,44.2205311,322.05,0,1.1,34.2,706406.38,-52002.58,27.1,0,322.049987792969,,,0.999822676192359,0.018825851380825,58.609999999404
1973-12-21T09:25:04Z,125313904,20D,43.0883439,44.2205311,322.05,0,1.1,34.2,706406.38,-52002.58,27.1,0,322.049987792969,,,0.999822795401641,0.0188191663473845,58.859999999404
1973-12-21T09:25:04.25Z,125313904.25,20D,43.0883439,44.2205311,322.05,0,1.1,34.2,706406.38,-52002.58,27.1,0,322.049987792969,,,0.999822914610924,0.0188124813139439,59.109999999404
1973-12-21T09:25:04.5Z,125313904.5,20D,43.0883439,44.2205311,322.05,0,1.1,34.2,706406.38,-52002.58,27.1,0,322.049987792969,,,0.999823033820206,0.0188057981431484,59.359999999404
1973-12-21T09:25:04.75Z,125313904.75,20D,43.0883439,44.2205311,322.05,0,1.1,34.2,706406.38,-52002.58,27.1,0,322.049987792969,,,0.999823153029489,0.0187991112470627,59.609999999404
1973-12-21T09:25:05Z,125313905,20D,43.0883439,44.2205311,322.05,0,1.1,34.2,706406.38,-52002.58,27.1,0,322.049987792969,,,0.999823272238771,0.0187924280762672,59.859999999404
1973-12-21T09:25:05.25Z,125313905.25,20D,43.0883439,44.2205311,322.05,0,1.1,34.2,706406.38,-52002.58,27.1,0,322.049987792969,,,0.999823510657336,0.0187857449054718,60.109999999404
1973-12-21T09:25:05.5Z,125313905.5,20D,43.0883439,44.2205311,322.05,0,1.1,34.2,706406.38,-52002.58,27.1,0,322.049987792969,,,0.999823510657336,0.0187790580093861,60.359999999404
1973-12-21T09:25:05.75Z,125313905.75,20D,43.0883439,44.2205311,322.05,0,1.1,34.2,706406.38,-52002.58,27.1,0,322.049987792969,,,0.99982368947126,0.0187723748385906,60.609999999404
1973-12-21T09:25:06Z,125313906,20D,43.0883439,44.2205311,322.05,0,1.1,34.2,706406.38,-52002.58,27.1,0,322.049987792969,,,0.999823808680542,0.0187656916677952,60.859999999404
1973-12-21T09:25:06.25Z,125313906.25,20D,43.0883439,44.2205311,322.05,0,1.1,34.2,706406.38,-52002.58,27.1,0,322.049987792969,,,0.999823927889825,0.0187590047717094,61.109999999404
1973-12-21T09:25:06.5Z,125313906.5,20D,43.0883439,44.2205311,322.05,0,1.1,34.2,706406.38,-52002.58,27.1,0,322.049987792969,,,0.999824106703748,0.018752321600914,61.359999999404
1973-12-21T09:25:06.75Z,125313906.75,20D,43.0883439,44.2205311,322.05,0,1.1,34.2,706406.38,-52002.58,27.1,0,322.049987792969,,,0.99982416630839,0.0187456365674734,61.609999999404
1973-12-21T09:25:07Z,125313907,20D,43.0883439,44.2205311,322.05,0,1.1,34.2,706406.38,-52002.58,27.1,0,322.049987792969,,,0.999824285517672,0.0187389515340328,61.859999999404
1973-12-21T09:25:07.25Z,125313907.25,20D,43.0883439,44.2205311,322.05,0,1.1,34.2,706406.38,-52002.58,27.1,0,322.049987792969,,,0.999824464331596,0.0187322683632374,62.109999999404
1973-12-21T09:25:07.5Z,125313907.5,20D,43.0883439,44.2205311,322.05,0,1.1,34.2,706406.38,-52002.58,27.1,0,322.049987792969,,,0.999824583540878,0.0187255833297968,62.359999999404
1973-12-21T09:25:07.75Z,125313907.75,20D,43.0883439,44.2205311,322.05,0,1.1,34.2,706406.38,-52002.58,27.1,0,322.049987792969,,,0.99982470275016,0.0187188982963562,62.609999999404
1973-12-21T09:25:08Z,125313908,20D,43.0883439,44.2205311,322.05,0,1.1,34.2,706406.38,-52002.58,27.1,0,322.049987792969,,,0.999824821959443,0.0187122151255608,62.859999999404
1973-12-21T09:25:08.25Z,125313908.25,20D,43.0883439,44.2205311,322.05,0,1.1,34.2,706406.38,-52002.58,27.1,0,322.049987792969,,,0.999824941168725,0.0187055300921202,63.109999999404
1973-12-21T09:25:08.5Z,125313908.5,20D,43.0883439,44.2205311,322.05,0,1.1,34.2,706406.38,-52002.58,27.1,0,322.049987792969,,,0.999825060378008,0.0186988450586796,63.359999999404
1973-12-21T09:25:08.75Z,125313908.75,20D,43.0883439,44.2205311,322.05,0,1.1,34.2,706406.38,-52002.58,27.1,0,322.049987792969,,,0.99982517958729,0.0186921618878841,63.609999999404
1973-12-21T09:25:09Z,125313909,20D,43.0883439,44.2205311,322.05,0,1.1,34.2,706406.38,-52002.58,27.1,0,322.049987792969,,,0.999825358401214,0.0186854768544436,63.859999999404
1973-12-21T09:25:09.25Z,125313909.25,20D,43.0883439,44.2205311,322.05,0,1.1,34.2,706406.38,-52002.58,27.1,0,322.049987792969,,,0.999825418005855,0.018678791821003,64.109999999404
1973-12-21T09:25:09.5Z,125313909.5,20D,43.0883439,44.2205311,322.05,0,1.1,34.2,706406.38,-52002.58,27.1,0,322.049987792969,,,0.999825537215138,0.0186721067875624,64.359999999404
1973-12-21T09:25:09.75Z,125313909.75,20D,43.0883439,44.2205311,322.05,0,1.1,34.2,706406.38,-52002.58,27.1,0,322.049987792969,,,0.999825716029061,0.0186654217541218,64.609999999404
1973-12-21T09:25:10Z,125313910,20D,43.0883439,44.2205311,322.05,0,1.1,34.2,706406.38,-52002.58,27.1,0,322.049987792969,,,0.999825835238344,0.0186587385833263,64.859999999404
1973-12-21T09:25:10.25Z,125313910.25,20D,43.0883439,44.2205311,322.05,0,1.1,34.2,706406.38,-52002.58,27.1,0,322.049987792969,,,0.999825894842985,0.0186520535498857,65.109999999404
1973-12-21T09:25:10.5Z,125313910.5,20D,43.0883439,44.2205311,322.05,0,1.1,34.2,706406.38,-52002.58,27.1,0,322.049987792969,,,0.999826073656909,0.0186453685164452,65.359999999404
1973-12-21T09:25:10.75Z,125313910.75,20D,43.0883439,44.2205311,322.05,0,1.1,34.2,706406.38,-52002.58,27.1,0,322.049987792969,,,0.999826192866191,0.0186386853456497,65.609999999404
1973-12-21T09:25:11Z,125313911,20D,43.0883439,44.2205311,322.05,0,1.1,34.2,706406.38,-52002.58,27.1,0,322.049987792969,,,0.999826252470832,0.0186320003122091,65.859999999404
1973-12-21T09:25:11.25Z,125313911.25,20D,43.0883439,44.2205311,322.05,0,1.1,34.2,706406.38,-52002.58,27.1,0,322.049987792969,,,0.999826431284756,0.0186253152787685,66.109999999404
1973-12-21T09:25:11.5Z,125313911.5,20D,43.0883439,44.2205311,322.05,0,1.1,34.2,706406.38,-52002.58,27.1,0,322.049987792969,,,0.999826550494038,0.0186186302453279,66.359999999404
1973-12-21T09:25:11.75Z,125313911.75,20D,43.0883439,44.2205311,322.05,0,1.1,34.2,706406.38,-52002.58,27.1,0,322.049987792969,,,0.999826729307962,0.0186119470745325,66.609999999404
1973-12-21T09:25:12Z,125313912,20D,43.0883439,44.2205311,322.05,0,1.1,34.2,706406.38,-52002.58,27.1,0,322.049987792969,,,0.999826788912603,0.0186052620410919,66.859999999404
1973-12-21T09:25:12.25Z,125313912.25,20D,43.0883439,44.2205311,322.05,0,1.1,34.2,706406.38,-52002.58,27.1,0,322.049987792969,,,0.999826908121886,0.0185985770076513,67.109999999404
1973-12-21T09:25:12.5Z,125313912.5,20D,43.0883439,44.2205311,322.05,0,1.1,34.2,706406.38,-52002.58,27.1,0,322.049987792969,,,0.999827086935809,0.0185918938368559,67.359999999404
1973-12-21T09:25:12.75Z,125313912.75,20D,43.0883439,44.2205311,322.05,0,1.1,34.2,706406.38,-52002.58,27.1,0,322.049987792969,,,0.999827146540451,0.0185852088034153,67.609999999404
1973-12-21T09:25:13Z,125313913,20D,43.0883439,44.2205311,322.05,0,1.1,34.2,706406.38,-52002.58,27.1,0,322.049987792969,,,0.999827265749733,0.0185785237699747,67.859999999404
1973-12-21T09:25:13.25Z,125313913.25,20D,43.0883439,44.2205311,322.05,0,1.1,34.2,706406.38,-52002.58,27.1,0,322.049987792969,,,0.999827384959016,0.0185718405991793,68.109999999404
1973-12-21T09:25:13.5Z,125313913.5,20D,43.0883439,44.2205311,322.05,0,1.1,34.2,706406.38,-52002.58,27.1,0,322.049987792969,,,0.999827563772939,0.0185651537030935,68.359999999404
1973-12-21T09:25:13.75Z,125313913.75,20D,43.0883439,44.2205311,322.05,0,1.1,34.2,706406.38,-52002.58,27.1,0,322.049987792969,,,0.999827682982222,0.0185584705322981,68.609999999404
1973-12-21T09:25:14Z,125313914,20D,43.0883439,44.2205311,322.05,0,1.1,34.2,706406.38,-52002.58,27.1,0,322.049987792969,,,0.999827861796145,0.0185517873615026,68.859999999404
1973-12-21T09:25:14.25Z,125313914.25,20D,43.0883439,44.2205311,322.05,0,1.1,34.2,706406.38,-52002.58,27.1,0,322.049987792969,,,0.999827921400787,0.0185451004654169,69.109999999404
1973-12-21T09:25:14.5Z,125313914.5,20D,43.0883439,44.2205311,322.05,0,1.1,34.2,706406.38,-52002.58,27.1,0,322.049987792969,,,0.999827981005428,0.0185384172946215,69.359999999404
1973-12-21T09:25:14.75Z,125313914.75,20D,43.0883439,44.2205311,322.05,0,1.1,34.2,706406.38,-52002.58,27.1,0,322.049987792969,,,0.999828159819351,0.0185317322611809,69.609999999404
1973-12-21T09:25:15Z,125313915,20D,43.0883439,44.2205311,322.05,0,1.1,34.2,706406.38,-52002.58,27.1,0,322.049987792969,,,0.999828279028634,0.0185250472277403,69.859999999404
1973-12-21T09:25:15.25Z,125313915.25,20D,43.0883439,44.2205311,322.05,0,1.1,34.2,706406.38,-52002.58,27.1,0,322.049987792969,,,0.999828398237916,0.0185183640569448,70.109999999404
1973-12-21T09:25:15.5Z,125313915.5,20D,43.0883439,44.2205311,322.05,0,1.1,34.2,706406.38,-52002.58,27.1,0,322.049987792969,,,0.99982857705184,0.0185116790235043,70.359999999404
1973-12-21T09:25:15.75Z,125313915.75,20D,43.0883439,44.2205311,322.05,0,1.1,34.2,706406.38,-52002.58,27.1,0,322.049987792969,,,0.999828696261122,0.0185049939900637,70.609999999404
1973-12-21T09:25:16Z,125313916,20D,43.0883439,44.2205311,322.05,0,1.1,34.2,706406.38,-52002.58,27.1,0,322.049987792969,,,0.999828755865764,0.0184983108192682,70.859999999404
1973-12-21T09:25:16.25Z,125313916.25,20D,43.0883439,44.2205311,322.05,0,1.1,34.2,706406.38,-52002.58,27.1,0,322.049987792969,,,0.999828934679687,0.0184916257858276,71.109999999404
1973-12-21T09:25:16.5Z,125313916.5,20D,43.0883439,44.2205311,322.05,0,1.1,34.2,706406.38,-52002.58,27.1,0,322.049987792969,,,0.99982905388897,0.018484940752387,71.359999999404
1973-12-21T09:25:16.75Z,125313916.75,20D,43.0883439,44.2205311,322.05,0,1.1,34.2,706406.38,-52002.58,27.1,0,322.049987792969,,,0.999829113493611,0.0184782557189465,71.609999999404
1973-12-21T09:25:17Z,125313917,20D,43.0883439,44.2205311,322.05,0,1.1,34.2,706406.38,-52002.58,27.1,0,322.049987792969,,,0.999829292307535,0.018471572548151,71.859999999404
1973-12-21T09:25:17.25Z,125313917.25,20D,43.0883439,44.2205311,322.05,0,1.1,34.2,706406.38,-52002.58,27.1,0,322.049987792969,,,0.999829471121458,0.0184648875147104,72.109999999404
1973-12-21T09:25:17.5Z,125313917.5,20D,43.0883439,44.2205311,322.05,0,1.1,34.2,706406.38,-52002.58,27.1,0,322.049987792969,,,0.9998295307261,0.0184582024812698,72.359999999404
1973-12-21T09:25:17.75Z,125313917.75,20D,43.0883439,44.2205311,322.05,0,1.1,34.2,706406.38,-52002.58,27.1,0,322.049987792969,,,0.999829649935382,0.0184515193104744,72.609999999404
1973-12-21T09:25:18Z,125313918,20D,43.0883439,44.2205311,322.05,0,1.1,34.2,706406.38,-52002.58,27.1,0,322.049987792969,,,0.999829828749306,0.0184448324143887,72.859999999404
1973-12-21T09:25:18.25Z,125313918.25,20D,43.0883439,44.2205311,322.05,0,1.1,34.2,706406.38,-52002.58,27.1,0,322.049987792969,,,0.999829888353947,0.0184381492435932,73.109999999404
1973-12-21T09:25:18.5Z,125313918.5,20D,43.0883439,44.2205311,322.05,0,1.1,34.2,706406.38,-52002.58,27.1,0,322.049987792969,,,0.999830007563229,0.0184314660727978,73.359999999404
1973-12-21T09:25:18.75Z,125313918.75,20D,43.0883439,44.2205311,322.05,0,1.1,34.2,706406.38,-52002.58,27.1,0,322.049987792969,,,0.999830186377153,0.018424779176712,73.609999999404
1973-12-21T09:25:19Z,125313919,20D,43.0883439,44.2205311,322.05,0,1.1,34.2,706406.38,-52002.58,27.1,0,322.049987792969,,,0.999830245981794,0.0184180960059166,73.859999999404
1973-12-21T09:25:19.25Z,125313919.25,20D,43.0883439,44.2205311,322.05,0,1.1,34.2,706406.38,-52002.58,27.1,0,322.049987792969,,,0.999830365191077,0.018411410972476,74.109999999404
1973-12-21T09:25:19.5Z,125313919.5,20D,43.0883439,44.2205311,322.05,0,1.1,34.2,706406.38,-52002.58,27.1,0,322.049987792969,,,0.999830544005,0.0184047259390354,74.359999999404
1973-12-21T09:25:19.75Z,125313919.75,20D,43.0883439,44.2205311,322.05,0,1.1,34.2,706406.38,-52002.58,27.1,0,322.049987792969,,,0.999830603609641,0.01839804276824,74.609999999404
1973-12-21T09:25:20Z,125313920,20D,43.0883439,44.2205311,322.05,0,1.1,34.2,706406.38,-52002.58,27.1,0,322.049987792969,,,0.999830722818924,0.0183913577347994,74.859999999404
1973-12-21T09:25:20.25Z,125313920.25,20D,43.0883439,44.2205311,322.05,0,1.1,34.2,706406.38,-52002.58,27.1,0,322.049987792969,,,0.999830901632848,0.0183846727013588,75.109999999404
1973-12-21T09:25:20.5Z,125313920.5,20D,43.0883439,44.2205311,322.05,0,1.1,34.2,706406.38,-52002.58,27.1,0,322.049987792969,,,0.99983102084213,0.0183779895305634,75.359999999404
1973-12-21T09:25:20.75Z,125313920.75,20D,43.0883439,44.2205311,322.05,0,1.1,34.2,706406.38,-52002.58,27.1,0,322.049987792969,,,0.999831140051413,0.0183713044971228,75.609999999404
1973-12-21T09:25:21Z,125313921,20D,43.0883439,44.2205311,322.05,0,1.1,34.2,706406.38,-52002.58,27.1,0,322.049987792969,,,0.999831259260695,0.0183646194636822,75.859999999404
1973-12-21T09:25:21.25Z,125313921.25,20D,43.0883439,44.2205311,322.05,0,1.1,34.2,706406.38,-52002.58,27.1,0,322.049987792969,,,0.999831438074619,0.0183579344302416,76.109999999404
1973-12-21T09:25:21.5Z,125313921.5,20D,43.0883439,44.2205311,322.05,0,1.1,34.2,706406.38,-52002.58,27.1,0,322.049987792969,,,0.99983149767926,0.0183512512594461,76.359999999404
1973-12-21T09:25:21.75Z,125313921.75,20D,43.0883439,44.2205311,322.05,0,1.1,34.2,706406.38,-52002.58,27.1,0,322.049987792969,,,0.999831616888542,0.0183445662260056,76.609999999404
1973-12-21T09:25:22Z,125313922,20D,43.0883439,44.2205311,322.05,0,1.1,34.2,706406.38,-52002.58,27.1,0,322.049987792969,,,0.999831736097825,0.018337881192565,76.859999999404
1973-12-21T09:25:22.25Z,125313922.25,20D,43.0883439,44.2205311,322.05,0,1.1,34.2,706406.38,-52002.58,27.1,0,322.049987792969,,,0.999831855307107,0.0183311980217695,77.109999999404
1973-12-21T09:25:22.5Z,125313922.5,20D,43.0883439,44.2205311,322.05,0,1,34.2,706406.38,-52002.58,27.1,0,322.049987792969,,,0.99983197451639,0.0183245111256838,77.359999999404
1973-12-21T09:25:22.75Z,125313922.75,20D,43.0883439,44.2205311,322.05,0,1,34.2,706406.38,-52002.58,27.1,0,322.049987792969,,,0.999832153330313,0.0183178279548883,77.609999999404
1973-12-21T09:25:23Z,125313923,20D,43.0883439,44.2205311,322.05,0,1,34.2,706406.38,-52002.58,27.1,0,322.049987792969,,,0.999832212934955,0.0183111447840929,77.859999999404
1973-12-21T09:25:23.25Z,125313923.25,20D,43.0883439,44.2205311,322.05,0,1,34.2,706406.38,-52002.58,27.1,0,322.049987792969,,,0.999832332144237,0.0183044578880072,78.109999999404
1973-12-21T09:25:23.5Z,125313923.5,20D,43.0883439,44.2205311,322.05,0,1,34.2,706406.38,-52002.58,27.1,0,322.049987792969,,,0.999832510958161,0.0182977747172117,78.359999999404
1973-12-21T09:25:23.75Z,125313923.75,20D,43.0883439,44.2205311,322.05,0,1,34.2,706406.38,-52002.58,27.1,0,322.049987792969,,,0.999832630167443,0.0182910896837711,78.609999999404
1973-12-21T09:25:24Z,125313924,20D,43.0883439,44.2205311,322.05,0,1,34.2,706406.38,-52002.58,27.1,0,322.049987792969,,,0.999832689772084,0.0182844046503305,78.859999999404
1973-12-21T09:25:24.25Z,125313924.25,20D,43.0883439,44.2205311,322.05,0,1,34.2,706406.38,-52002.58,27.1,0,322.049987792969,,,0.999832868586008,0.0182777214795351,79.109999999404
1973-12-21T09:25:24.5Z,125313924.5,20D,43.0883439,44.2205311,322.05,0,1,34.2,706406.38,-52002.58,27.1,0,322.049987792969,,,0.999832987795291,0.0182710364460945,79.359999999404
1973-12-21T09:25:24.75Z,125313924.75,20D,43.0883439,44.2205311,322.05,0,1,34.2,706406.38,-52002.58,27.1,0,322.049987792969,,,0.999833047399932,0.0182643514126539,79.609999999404
1973-12-21T09:25:25Z,125313925,20D,43.0883439,44.2205311,322.05,0,1,34.2,706406.38,-52002.58,27.1,0,322.049987792969,,,0.999833226213855,0.0182576663792133,79.859999999404
1973-12-21T09:25:25.25Z,125313925.25,20D,43.0883439,44.2205311,322.05,0,1,34.2,706406.38,-52002.58,27.1,0,322.049987792969,,,0.999833345423138,0.0182509832084179,80.109999999404
1973-12-21T09:25:25.5Z,125313925.5,20D,43.0883439,44.2205311,322.05,0,1,34.2,706406.38,-52002.58,27.1,0,322.049987792969,,,0.99983346463242,0.0182442981749773,80.359999999404
1973-12-21T09:25:25.75Z,125313925.75,20D,43.0883439,44.2205311,322.05,0,1,34.2,706406.38,-52002.58,27.1,0,322.049987792969,,,0.999833524237062,0.0182376131415367,80.609999999404
1973-12-21T09:25:26Z,125313926,20D,43.0883439,44.2205311,322.05,0,1,34.2,706406.38,-52002.58,27.1,0,322.049987792969,,,0.999833762655626,0.0182309299707413,80.859999999404
1973-12-21T09:25:26.25Z,125313926.25,20D,43.0883439,44.2205311,322.05,0,1,34.2,706406.38,-52002.58,27.1,0,322.049987792969,,,0.999833822260268,0.0182242430746555,81.109999999404
1973-12-21T09:25:26.5Z,125313926.5,20D,43.0883439,44.2205311,322.05,0,1,34.2,706406.38,-52002.58,27.1,0,322.049987792969,,,0.99983394146955,0.0182175599038601,81.359999999404
1973-12-21T09:25:26.75Z,125313926.75,20D,43.0883439,44.2205311,322.05,0,1,34.2,706406.38,-52002.58,27.1,0,322.049987792969,,,0.999834060678833,0.0182108767330647,81.609999999404
1973-12-21T09:25:27Z,125313927,20D,43.0883439,44.2205311,322.05,0,1,34.2,706406.38,-52002.58,27.1,0,322.049987792969,,,0.999834239492756,0.0182041898369789,81.859999999404
1973-12-21T09:25:27.25Z,125313927.25,20D,43.0883439,44.2205311,322.05,0,1,34.2,706406.38,-52002.58,27.1,0,322.049987792969,,,0.999834299097397,0.0181975066661835,82.109999999404
